[
  {
    "id": "8 H-1",
    "name": "8 Homeward",
    "coordinates": [
      -12.02,
      97.09
    ],
    "description": "A Crater, craters on the Moon with a diameter of 12.52 km.",
    "imageUrl": ""
  },
  {
    "id": "ABB-6",
    "name": "Abbot",
    "coordinates": [
      5.56,
      54.74
    ],
    "description": "A Crater, craters on the Moon with a diameter of 10.4 km.",
    "imageUrl": ""
  },
  {
    "id": "[AB-7",
    "name": "[Abduh]",
    "coordinates": [
      14.7,
      39.0
    ],
    "description": "A Crater, craters on the Moon with a diameter of 0 km.",
    "imageUrl": ""
  },
  {
    "id": "ABE-8",
    "name": "Abel",
    "coordinates": [
      -34.63,
      85.78
    ],
    "description": "A Crater, craters on the Moon with a diameter of 137.35 km.",
    "imageUrl": ""
  },
  {
    "id": "ABE-9",
    "name": "Abel A",
    "coordinates": [
      -36.31,
      85.8
    ],
    "description": "A Satellite Feature on the Moon with a diameter of 27.83 km.",
    "imageUrl": ""
  },
  {
    "id": "ABE-10",
    "name": "Abel B",
    "coordinates": [
      -36.72,
      82.6
    ],
    "description": "A Satellite Feature on the Moon with a diameter of 41.55 km.",
    "imageUrl": ""
  },
  {
    "id": "ABE-11",
    "name": "Abel C",
    "coordinates": [
      -36.13,
      81.41
    ],
    "description": "A Satellite Feature on the Moon with a diameter of 36.84 km.",
    "imageUrl": ""
  },
  {
    "id": "ABE-12",
    "name": "Abel D",
    "coordinates": [
      -37.67,
      86.45
    ],
    "description": "A Satellite Feature on the Moon with a diameter of 27.9 km.",
    "imageUrl": ""
  },
  {
    "id": "ABE-13",
    "name": "Abel E",
    "coordinates": [
      -37.54,
      84.44
    ],
    "description": "A Satellite Feature on the Moon with a diameter of 14 km.",
    "imageUrl": ""
  },
  {
    "id": "ABE-14",
    "name": "Abel J",
    "coordinates": [
      -36.2,
      79.87
    ],
    "description": "A Satellite Feature on the Moon with a diameter of 18.76 km.",
    "imageUrl": ""
  },
  {
    "id": "ABE-15",
    "name": "Abel K",
    "coordinates": [
      -34.69,
      77.46
    ],
    "description": "A Satellite Feature on the Moon with a diameter of 9.94 km.",
    "imageUrl": ""
  },
  {
    "id": "ABE-16",
    "name": "Abel L",
    "coordinates": [
      -34.55,
      82.39
    ],
    "description": "A Satellite Feature on the Moon with a diameter of 54.13 km.",
    "imageUrl": ""
  },
  {
    "id": "ABE-17",
    "name": "Abel M",
    "coordinates": [
      -32.38,
      83.52
    ],
    "description": "A Satellite Feature on the Moon with a diameter of 91.01 km.",
    "imageUrl": ""
  },
  {
    "id": "ABE-18",
    "name": "Abenezra",
    "coordinates": [
      -20.99,
      11.89
    ],
    "description": "A Crater, craters on the Moon with a diameter of 43.19 km.",
    "imageUrl": ""
  },
  {
    "id": "ABE-19",
    "name": "Abenezra A",
    "coordinates": [
      -22.79,
      10.44
    ],
    "description": "A Satellite Feature on the Moon with a diameter of 22.19 km.",
    "imageUrl": ""
  },
  {
    "id": "ABE-20",
    "name": "Abenezra B",
    "coordinates": [
      -20.82,
      10.06
    ],
    "description": "A Satellite Feature on the Moon with a diameter of 13.77 km.",
    "imageUrl": ""
  },
  {
    "id": "ABE-21",
    "name": "Abenezra C",
    "coordinates": [
      -21.37,
      11.09
    ],
    "description": "A Satellite Feature on the Moon with a diameter of 43.69 km.",
    "imageUrl": ""
  },
  {
    "id": "ABE-22",
    "name": "Abenezra D",
    "coordinates": [
      -21.76,
      9.65
    ],
    "description": "A Satellite Feature on the Moon with a diameter of 7.25 km.",
    "imageUrl": ""
  },
  {
    "id": "ABE-23",
    "name": "Abenezra E",
    "coordinates": [
      -21.46,
      9.4
    ],
    "description": "A Satellite Feature on the Moon with a diameter of 14.11 km.",
    "imageUrl": ""
  },
  {
    "id": "ABE-24",
    "name": "Abenezra F",
    "coordinates": [
      -21.58,
      10.34
    ],
    "description": "A Satellite Feature on the Moon with a diameter of 6.3 km.",
    "imageUrl": ""
  },
  {
    "id": "ABE-25",
    "name": "Abenezra G",
    "coordinates": [
      -20.53,
      11.0
    ],
    "description": "A Satellite Feature on the Moon with a diameter of 4.92 km.",
    "imageUrl": ""
  },
  {
    "id": "ABE-26",
    "name": "Abenezra H",
    "coordinates": [
      -21.09,
      12.71
    ],
    "description": "A Satellite Feature on the Moon with a diameter of 4.72 km.",
    "imageUrl": ""
  },
  {
    "id": "ABE-27",
    "name": "Abenezra J",
    "coordinates": [
      -19.92,
      10.69
    ],
    "description": "A Satellite Feature on the Moon with a diameter of 4.26 km.",
    "imageUrl": ""
  },
  {
    "id": "ABE-28",
    "name": "Abenezra P",
    "coordinates": [
      -20.02,
      9.85
    ],
    "description": "A Satellite Feature on the Moon with a diameter of 39.27 km.",
    "imageUrl": ""
  },
  {
    "id": "ABE-29",
    "name": "Abetti",
    "coordinates": [
      20.11,
      27.82
    ],
    "description": "A Crater, craters on the Moon with a diameter of 1.6 km.",
    "imageUrl": ""
  },
  {
    "id": "ABU-30",
    "name": "Abulfeda",
    "coordinates": [
      -13.87,
      13.91
    ],
    "description": "A Crater, craters on the Moon with a diameter of 62.23 km.",
    "imageUrl": ""
  },
  {
    "id": "ABU-31",
    "name": "Abulfeda A",
    "coordinates": [
      -16.43,
      10.75
    ],
    "description": "A Satellite Feature on the Moon with a diameter of 13.26 km.",
    "imageUrl": ""
  },
  {
    "id": "ABU-32",
    "name": "Abulfeda B",
    "coordinates": [
      -14.51,
      16.37
    ],
    "description": "A Satellite Feature on the Moon with a diameter of 15.49 km.",
    "imageUrl": ""
  },
  {
    "id": "ABU-33",
    "name": "Abulfeda BA",
    "coordinates": [
      -14.69,
      16.8
    ],
    "description": "A Satellite Feature on the Moon with a diameter of 13.99 km.",
    "imageUrl": ""
  },
  {
    "id": "ABU-34",
    "name": "Abulfeda C",
    "coordinates": [
      -12.79,
      10.83
    ],
    "description": "A Satellite Feature on the Moon with a diameter of 16.43 km.",
    "imageUrl": ""
  },
  {
    "id": "ABU-35",
    "name": "Abulfeda D",
    "coordinates": [
      -13.25,
      9.46
    ],
    "description": "A Satellite Feature on the Moon with a diameter of 19.68 km.",
    "imageUrl": ""
  },
  {
    "id": "ABU-36",
    "name": "Abulfeda E",
    "coordinates": [
      -16.76,
      10.14
    ],
    "description": "A Satellite Feature on the Moon with a diameter of 5.55 km.",
    "imageUrl": ""
  },
  {
    "id": "ABU-37",
    "name": "Abulfeda F",
    "coordinates": [
      -16.19,
      13.07
    ],
    "description": "A Satellite Feature on the Moon with a diameter of 17.47 km.",
    "imageUrl": ""
  },
  {
    "id": "ABU-38",
    "name": "Abulfeda G",
    "coordinates": [
      -13.1,
      8.94
    ],
    "description": "A Satellite Feature on the Moon with a diameter of 6.31 km.",
    "imageUrl": ""
  },
  {
    "id": "ABU-39",
    "name": "Abulfeda H",
    "coordinates": [
      -13.84,
      9.56
    ],
    "description": "A Satellite Feature on the Moon with a diameter of 4.22 km.",
    "imageUrl": ""
  },
  {
    "id": "ABU-40",
    "name": "Abulfeda J",
    "coordinates": [
      -15.49,
      10.03
    ],
    "description": "A Satellite Feature on the Moon with a diameter of 4.07 km.",
    "imageUrl": ""
  },
  {
    "id": "ABU-41",
    "name": "Abulfeda K",
    "coordinates": [
      -14.92,
      10.58
    ],
    "description": "A Satellite Feature on the Moon with a diameter of 9.93 km.",
    "imageUrl": ""
  },
  {
    "id": "ABU-42",
    "name": "Abulfeda L",
    "coordinates": [
      -14.09,
      10.67
    ],
    "description": "A Satellite Feature on the Moon with a diameter of 4.95 km.",
    "imageUrl": ""
  },
  {
    "id": "ABU-43",
    "name": "Abulfeda M",
    "coordinates": [
      -16.23,
      12.06
    ],
    "description": "A Satellite Feature on the Moon with a diameter of 10.05 km.",
    "imageUrl": ""
  },
  {
    "id": "ABU-44",
    "name": "Abulfeda N",
    "coordinates": [
      -15.14,
      12.2
    ],
    "description": "A Satellite Feature on the Moon with a diameter of 13.07 km.",
    "imageUrl": ""
  },
  {
    "id": "ABU-45",
    "name": "Abulfeda O",
    "coordinates": [
      -15.47,
      11.16
    ],
    "description": "A Satellite Feature on the Moon with a diameter of 6.6 km.",
    "imageUrl": ""
  },
  {
    "id": "ABU-46",
    "name": "Abulfeda P",
    "coordinates": [
      -15.5,
      11.54
    ],
    "description": "A Satellite Feature on the Moon with a diameter of 4.59 km.",
    "imageUrl": ""
  },
  {
    "id": "ABU-47",
    "name": "Abulfeda Q",
    "coordinates": [
      -12.86,
      12.22
    ],
    "description": "A Satellite Feature on the Moon with a diameter of 3.51 km.",
    "imageUrl": ""
  },
  {
    "id": "ABU-48",
    "name": "Abulfeda R",
    "coordinates": [
      -12.79,
      12.97
    ],
    "description": "A Satellite Feature on the Moon with a diameter of 6.34 km.",
    "imageUrl": ""
  },
  {
    "id": "ABU-49",
    "name": "Abulfeda S",
    "coordinates": [
      -12.28,
      13.3
    ],
    "description": "A Satellite Feature on the Moon with a diameter of 5.28 km.",
    "imageUrl": ""
  },
  {
    "id": "ABU-50",
    "name": "Abulfeda T",
    "coordinates": [
      -14.86,
      13.71
    ],
    "description": "A Satellite Feature on the Moon with a diameter of 6.16 km.",
    "imageUrl": ""
  },
  {
    "id": "ABU-51",
    "name": "Abulfeda U",
    "coordinates": [
      -12.97,
      13.8
    ],
    "description": "A Satellite Feature on the Moon with a diameter of 5.82 km.",
    "imageUrl": ""
  },
  {
    "id": "ABU-52",
    "name": "Abulfeda W",
    "coordinates": [
      -12.55,
      13.85
    ],
    "description": "A Satellite Feature on the Moon with a diameter of 5.42 km.",
    "imageUrl": ""
  },
  {
    "id": "ABU-53",
    "name": "Abulfeda X",
    "coordinates": [
      -15.01,
      13.99
    ],
    "description": "A Satellite Feature on the Moon with a diameter of 5.8 km.",
    "imageUrl": ""
  },
  {
    "id": "ABU-54",
    "name": "Abulfeda Y",
    "coordinates": [
      -12.76,
      14.05
    ],
    "description": "A Satellite Feature on the Moon with a diameter of 4.63 km.",
    "imageUrl": ""
  },
  {
    "id": "ABU-55",
    "name": "Abulfeda Z",
    "coordinates": [
      -14.73,
      15.18
    ],
    "description": "A Satellite Feature on the Moon with a diameter of 5.66 km.",
    "imageUrl": ""
  },
  {
    "id": "ABU-56",
    "name": "Abul W\u00e1fa",
    "coordinates": [
      0.96,
      116.63
    ],
    "description": "A Crater, craters on the Moon with a diameter of 54.18 km.",
    "imageUrl": ""
  },
  {
    "id": "ABU-57",
    "name": "Abul W\u00e1fa A",
    "coordinates": [
      1.4,
      116.86
    ],
    "description": "A Satellite Feature on the Moon with a diameter of 14.98 km.",
    "imageUrl": ""
  },
  {
    "id": "ABU-58",
    "name": "Abul W\u00e1fa Q",
    "coordinates": [
      0.14,
      115.88
    ],
    "description": "A Satellite Feature on the Moon with a diameter of 31.04 km.",
    "imageUrl": ""
  },
  {
    "id": "ACO-59",
    "name": "Acosta",
    "coordinates": [
      -5.65,
      60.14
    ],
    "description": "A Crater, craters on the Moon with a diameter of 13.06 km.",
    "imageUrl": ""
  },
  {
    "id": "ADA-60",
    "name": "Adams",
    "coordinates": [
      -31.89,
      68.39
    ],
    "description": "A Crater, craters on the Moon with a diameter of 63.27 km.",
    "imageUrl": ""
  },
  {
    "id": "ADA-61",
    "name": "Adams B",
    "coordinates": [
      -31.54,
      65.7
    ],
    "description": "A Satellite Feature on the Moon with a diameter of 31.33 km.",
    "imageUrl": ""
  },
  {
    "id": "ADA-62",
    "name": "Adams C",
    "coordinates": [
      -32.35,
      65.54
    ],
    "description": "A Satellite Feature on the Moon with a diameter of 11.12 km.",
    "imageUrl": ""
  },
  {
    "id": "ADA-63",
    "name": "Adams D",
    "coordinates": [
      -32.41,
      71.45
    ],
    "description": "A Satellite Feature on the Moon with a diameter of 46.26 km.",
    "imageUrl": ""
  },
  {
    "id": "ADA-64",
    "name": "Adams M",
    "coordinates": [
      -34.73,
      69.33
    ],
    "description": "A Satellite Feature on the Moon with a diameter of 25.23 km.",
    "imageUrl": ""
  },
  {
    "id": "ADA-65",
    "name": "Adams P",
    "coordinates": [
      -35.15,
      70.91
    ],
    "description": "A Satellite Feature on the Moon with a diameter of 25.43 km.",
    "imageUrl": ""
  },
  {
    "id": "AEP-66",
    "name": "Aepinus",
    "coordinates": [
      87.96,
      -109.69
    ],
    "description": "A Crater, craters on the Moon with a diameter of 16.74 km.",
    "imageUrl": ""
  },
  {
    "id": "AGA-67",
    "name": "Agatharchides",
    "coordinates": [
      -19.85,
      -31.11
    ],
    "description": "A Crater, craters on the Moon with a diameter of 51.98 km.",
    "imageUrl": ""
  },
  {
    "id": "AGA-68",
    "name": "Agatharchides A",
    "coordinates": [
      -23.27,
      -28.46
    ],
    "description": "A Satellite Feature on the Moon with a diameter of 15.68 km.",
    "imageUrl": ""
  },
  {
    "id": "AGA-69",
    "name": "Agatharchides B",
    "coordinates": [
      -21.52,
      -31.71
    ],
    "description": "A Satellite Feature on the Moon with a diameter of 6.97 km.",
    "imageUrl": ""
  },
  {
    "id": "AGA-70",
    "name": "Agatharchides C",
    "coordinates": [
      -22.06,
      -32.94
    ],
    "description": "A Satellite Feature on the Moon with a diameter of 11.46 km.",
    "imageUrl": ""
  },
  {
    "id": "AGA-71",
    "name": "Agatharchides E",
    "coordinates": [
      -20.74,
      -33.19
    ],
    "description": "A Satellite Feature on the Moon with a diameter of 15.27 km.",
    "imageUrl": ""
  },
  {
    "id": "AGA-72",
    "name": "Agatharchides F",
    "coordinates": [
      -20.26,
      -31.86
    ],
    "description": "A Satellite Feature on the Moon with a diameter of 5.89 km.",
    "imageUrl": ""
  },
  {
    "id": "AGA-73",
    "name": "Agatharchides G",
    "coordinates": [
      -20.17,
      -26.84
    ],
    "description": "A Satellite Feature on the Moon with a diameter of 5.96 km.",
    "imageUrl": ""
  },
  {
    "id": "AGA-74",
    "name": "Agatharchides H",
    "coordinates": [
      -20.41,
      -33.95
    ],
    "description": "A Satellite Feature on the Moon with a diameter of 15.97 km.",
    "imageUrl": ""
  },
  {
    "id": "AGA-75",
    "name": "Agatharchides J",
    "coordinates": [
      -21.62,
      -32.61
    ],
    "description": "A Satellite Feature on the Moon with a diameter of 13.04 km.",
    "imageUrl": ""
  },
  {
    "id": "AGA-76",
    "name": "Agatharchides K",
    "coordinates": [
      -21.08,
      -27.53
    ],
    "description": "A Satellite Feature on the Moon with a diameter of 13.35 km.",
    "imageUrl": ""
  },
  {
    "id": "AGA-77",
    "name": "Agatharchides L",
    "coordinates": [
      -21.12,
      -26.79
    ],
    "description": "A Satellite Feature on the Moon with a diameter of 7.99 km.",
    "imageUrl": ""
  },
  {
    "id": "AGA-78",
    "name": "Agatharchides N",
    "coordinates": [
      -21.09,
      -29.72
    ],
    "description": "A Satellite Feature on the Moon with a diameter of 21.65 km.",
    "imageUrl": ""
  },
  {
    "id": "AGA-79",
    "name": "Agatharchides O",
    "coordinates": [
      -19.24,
      -26.71
    ],
    "description": "A Satellite Feature on the Moon with a diameter of 4.65 km.",
    "imageUrl": ""
  },
  {
    "id": "AGA-80",
    "name": "Agatharchides P",
    "coordinates": [
      -20.3,
      -28.77
    ],
    "description": "A Satellite Feature on the Moon with a diameter of 65.98 km.",
    "imageUrl": ""
  },
  {
    "id": "AGA-81",
    "name": "Agatharchides R",
    "coordinates": [
      -18.36,
      -30.85
    ],
    "description": "A Satellite Feature on the Moon with a diameter of 5.11 km.",
    "imageUrl": ""
  },
  {
    "id": "AGA-82",
    "name": "Agatharchides S",
    "coordinates": [
      -17.75,
      -30.59
    ],
    "description": "A Satellite Feature on the Moon with a diameter of 3.06 km.",
    "imageUrl": ""
  },
  {
    "id": "AGA-83",
    "name": "Agatharchides T",
    "coordinates": [
      -18.32,
      -27.8
    ],
    "description": "A Satellite Feature on the Moon with a diameter of 5.62 km.",
    "imageUrl": ""
  },
  {
    "id": "AGR-84",
    "name": "Agrippa",
    "coordinates": [
      4.1,
      10.47
    ],
    "description": "A Crater, craters on the Moon with a diameter of 43.75 km.",
    "imageUrl": ""
  },
  {
    "id": "AGR-85",
    "name": "Agrippa B",
    "coordinates": [
      6.2,
      9.46
    ],
    "description": "A Satellite Feature on the Moon with a diameter of 4.01 km.",
    "imageUrl": ""
  },
  {
    "id": "AGR-86",
    "name": "Agrippa D",
    "coordinates": [
      3.77,
      6.72
    ],
    "description": "A Satellite Feature on the Moon with a diameter of 21.36 km.",
    "imageUrl": ""
  },
  {
    "id": "AGR-87",
    "name": "Agrippa E",
    "coordinates": [
      5.16,
      8.44
    ],
    "description": "A Satellite Feature on the Moon with a diameter of 5 km.",
    "imageUrl": ""
  },
  {
    "id": "AGR-88",
    "name": "Agrippa F",
    "coordinates": [
      4.3,
      11.37
    ],
    "description": "A Satellite Feature on the Moon with a diameter of 5.35 km.",
    "imageUrl": ""
  },
  {
    "id": "AGR-89",
    "name": "Agrippa G",
    "coordinates": [
      3.91,
      6.16
    ],
    "description": "A Satellite Feature on the Moon with a diameter of 13.24 km.",
    "imageUrl": ""
  },
  {
    "id": "AGR-90",
    "name": "Agrippa H",
    "coordinates": [
      4.75,
      10.7
    ],
    "description": "A Satellite Feature on the Moon with a diameter of 4.86 km.",
    "imageUrl": ""
  },
  {
    "id": "AGR-91",
    "name": "Agrippa S",
    "coordinates": [
      5.28,
      8.89
    ],
    "description": "A Satellite Feature on the Moon with a diameter of 31.71 km.",
    "imageUrl": ""
  },
  {
    "id": "AIR-92",
    "name": "Airy",
    "coordinates": [
      -18.14,
      5.61
    ],
    "description": "A Crater, craters on the Moon with a diameter of 38.9 km.",
    "imageUrl": ""
  },
  {
    "id": "AIR-93",
    "name": "Airy A",
    "coordinates": [
      -17.05,
      7.64
    ],
    "description": "A Satellite Feature on the Moon with a diameter of 12.19 km.",
    "imageUrl": ""
  },
  {
    "id": "AIR-94",
    "name": "Airy B",
    "coordinates": [
      -17.67,
      8.46
    ],
    "description": "A Satellite Feature on the Moon with a diameter of 27.26 km.",
    "imageUrl": ""
  },
  {
    "id": "AIR-95",
    "name": "Airy C",
    "coordinates": [
      -19.25,
      4.77
    ],
    "description": "A Satellite Feature on the Moon with a diameter of 30.49 km.",
    "imageUrl": ""
  },
  {
    "id": "AIR-96",
    "name": "Airy D",
    "coordinates": [
      -18.13,
      8.34
    ],
    "description": "A Satellite Feature on the Moon with a diameter of 6.61 km.",
    "imageUrl": ""
  },
  {
    "id": "AIR-97",
    "name": "Airy E",
    "coordinates": [
      -20.75,
      7.55
    ],
    "description": "A Satellite Feature on the Moon with a diameter of 38.04 km.",
    "imageUrl": ""
  },
  {
    "id": "AIR-98",
    "name": "Airy F",
    "coordinates": [
      -18.2,
      7.26
    ],
    "description": "A Satellite Feature on the Moon with a diameter of 4.84 km.",
    "imageUrl": ""
  },
  {
    "id": "AIR-99",
    "name": "Airy G",
    "coordinates": [
      -18.7,
      6.96
    ],
    "description": "A Satellite Feature on the Moon with a diameter of 25.32 km.",
    "imageUrl": ""
  },
  {
    "id": "AIR-100",
    "name": "Airy H",
    "coordinates": [
      -18.74,
      5.69
    ],
    "description": "A Satellite Feature on the Moon with a diameter of 9.31 km.",
    "imageUrl": ""
  },
  {
    "id": "AIR-101",
    "name": "Airy J",
    "coordinates": [
      -19.05,
      6.08
    ],
    "description": "A Satellite Feature on the Moon with a diameter of 3.93 km.",
    "imageUrl": ""
  },
  {
    "id": "AIR-102",
    "name": "Airy L",
    "coordinates": [
      -20.47,
      7.54
    ],
    "description": "A Satellite Feature on the Moon with a diameter of 6.02 km.",
    "imageUrl": ""
  },
  {
    "id": "AIR-103",
    "name": "Airy M",
    "coordinates": [
      -19.15,
      7.56
    ],
    "description": "A Satellite Feature on the Moon with a diameter of 0.85 km.",
    "imageUrl": ""
  },
  {
    "id": "AIR-104",
    "name": "Airy N",
    "coordinates": [
      -17.85,
      8.18
    ],
    "description": "A Satellite Feature on the Moon with a diameter of 7.95 km.",
    "imageUrl": ""
  },
  {
    "id": "AIR-105",
    "name": "Airy O",
    "coordinates": [
      -16.75,
      8.35
    ],
    "description": "A Satellite Feature on the Moon with a diameter of 4.53 km.",
    "imageUrl": ""
  },
  {
    "id": "AIR-106",
    "name": "Airy P",
    "coordinates": [
      -15.88,
      8.35
    ],
    "description": "A Satellite Feature on the Moon with a diameter of 6.64 km.",
    "imageUrl": ""
  },
  {
    "id": "AIR-107",
    "name": "Airy R",
    "coordinates": [
      -19.6,
      8.78
    ],
    "description": "A Satellite Feature on the Moon with a diameter of 6.34 km.",
    "imageUrl": ""
  },
  {
    "id": "AIR-108",
    "name": "Airy S",
    "coordinates": [
      -17.28,
      9.39
    ],
    "description": "A Satellite Feature on the Moon with a diameter of 5.31 km.",
    "imageUrl": ""
  },
  {
    "id": "AIR-109",
    "name": "Airy T",
    "coordinates": [
      -19.27,
      9.38
    ],
    "description": "A Satellite Feature on the Moon with a diameter of 36.92 km.",
    "imageUrl": ""
  },
  {
    "id": "AIR-110",
    "name": "Airy V",
    "coordinates": [
      -17.5,
      9.14
    ],
    "description": "A Satellite Feature on the Moon with a diameter of 4.43 km.",
    "imageUrl": ""
  },
  {
    "id": "AIR-111",
    "name": "Airy X",
    "coordinates": [
      -18.95,
      10.12
    ],
    "description": "A Satellite Feature on the Moon with a diameter of 3.87 km.",
    "imageUrl": ""
  },
  {
    "id": "AIT-112",
    "name": "Aitken",
    "coordinates": [
      -16.44,
      172.96
    ],
    "description": "A Crater, craters on the Moon with a diameter of 129.69 km.",
    "imageUrl": ""
  },
  {
    "id": "AIT-113",
    "name": "Aitken A",
    "coordinates": [
      -13.87,
      173.46
    ],
    "description": "A Satellite Feature on the Moon with a diameter of 12.94 km.",
    "imageUrl": ""
  },
  {
    "id": "AIT-114",
    "name": "Aitken C",
    "coordinates": [
      -13.76,
      175.57
    ],
    "description": "A Satellite Feature on the Moon with a diameter of 65.61 km.",
    "imageUrl": ""
  },
  {
    "id": "AIT-115",
    "name": "Aitken G",
    "coordinates": [
      -16.71,
      173.99
    ],
    "description": "A Satellite Feature on the Moon with a diameter of 6.05 km.",
    "imageUrl": ""
  },
  {
    "id": "AIT-116",
    "name": "Aitken N",
    "coordinates": [
      -17.63,
      172.74
    ],
    "description": "A Satellite Feature on the Moon with a diameter of 7.15 km.",
    "imageUrl": ""
  },
  {
    "id": "AIT-117",
    "name": "Aitken Y",
    "coordinates": [
      -11.93,
      172.92
    ],
    "description": "A Satellite Feature on the Moon with a diameter of 35.72 km.",
    "imageUrl": ""
  },
  {
    "id": "AIT-118",
    "name": "Aitken Z",
    "coordinates": [
      -14.89,
      173.21
    ],
    "description": "A Satellite Feature on the Moon with a diameter of 32.06 km.",
    "imageUrl": ""
  },
  {
    "id": "AKI-119",
    "name": "Akis",
    "coordinates": [
      20.01,
      -31.76
    ],
    "description": "A Crater, craters on the Moon with a diameter of 2.28 km.",
    "imageUrl": ""
  },
  {
    "id": "ALA-120",
    "name": "Alan",
    "coordinates": [
      -10.93,
      -6.17
    ],
    "description": "A Crater, craters on the Moon with a diameter of 1.44 km.",
    "imageUrl": ""
  },
  {
    "id": "AL--121",
    "name": "Al-Bakri",
    "coordinates": [
      14.34,
      20.25
    ],
    "description": "A Crater, craters on the Moon with a diameter of 12.21 km.",
    "imageUrl": ""
  },
  {
    "id": "ALB-122",
    "name": "Albategnius",
    "coordinates": [
      -11.24,
      4.01
    ],
    "description": "A Crater, craters on the Moon with a diameter of 130.84 km.",
    "imageUrl": ""
  },
  {
    "id": "ALB-123",
    "name": "Albategnius A",
    "coordinates": [
      -9.34,
      3.03
    ],
    "description": "A Satellite Feature on the Moon with a diameter of 6.79 km.",
    "imageUrl": ""
  },
  {
    "id": "ALB-124",
    "name": "Albategnius B",
    "coordinates": [
      -10.07,
      4.03
    ],
    "description": "A Satellite Feature on the Moon with a diameter of 18.98 km.",
    "imageUrl": ""
  },
  {
    "id": "ALB-125",
    "name": "Albategnius C",
    "coordinates": [
      -10.33,
      3.71
    ],
    "description": "A Satellite Feature on the Moon with a diameter of 5.66 km.",
    "imageUrl": ""
  },
  {
    "id": "ALB-126",
    "name": "Albategnius D",
    "coordinates": [
      -11.36,
      7.14
    ],
    "description": "A Satellite Feature on the Moon with a diameter of 8.35 km.",
    "imageUrl": ""
  },
  {
    "id": "ALB-127",
    "name": "Albategnius E",
    "coordinates": [
      -12.95,
      6.38
    ],
    "description": "A Satellite Feature on the Moon with a diameter of 12.67 km.",
    "imageUrl": ""
  },
  {
    "id": "ALB-128",
    "name": "Albategnius G",
    "coordinates": [
      -9.46,
      1.89
    ],
    "description": "A Satellite Feature on the Moon with a diameter of 13.79 km.",
    "imageUrl": ""
  },
  {
    "id": "ALB-129",
    "name": "Albategnius H",
    "coordinates": [
      -9.66,
      5.16
    ],
    "description": "A Satellite Feature on the Moon with a diameter of 11.77 km.",
    "imageUrl": ""
  },
  {
    "id": "ALB-130",
    "name": "Albategnius J",
    "coordinates": [
      -11.14,
      6.19
    ],
    "description": "A Satellite Feature on the Moon with a diameter of 5.97 km.",
    "imageUrl": ""
  },
  {
    "id": "ALB-131",
    "name": "Albategnius K",
    "coordinates": [
      -9.9,
      2.0
    ],
    "description": "A Satellite Feature on the Moon with a diameter of 10.31 km.",
    "imageUrl": ""
  },
  {
    "id": "ALB-132",
    "name": "Albategnius L",
    "coordinates": [
      -12.08,
      6.31
    ],
    "description": "A Satellite Feature on the Moon with a diameter of 7.45 km.",
    "imageUrl": ""
  },
  {
    "id": "ALB-133",
    "name": "Albategnius M",
    "coordinates": [
      -8.92,
      4.16
    ],
    "description": "A Satellite Feature on the Moon with a diameter of 8.07 km.",
    "imageUrl": ""
  },
  {
    "id": "ALB-134",
    "name": "Albategnius N",
    "coordinates": [
      -9.89,
      4.54
    ],
    "description": "A Satellite Feature on the Moon with a diameter of 8.61 km.",
    "imageUrl": ""
  },
  {
    "id": "ALB-135",
    "name": "Albategnius O",
    "coordinates": [
      -13.62,
      4.43
    ],
    "description": "A Satellite Feature on the Moon with a diameter of 4.54 km.",
    "imageUrl": ""
  },
  {
    "id": "ALB-136",
    "name": "Albategnius P",
    "coordinates": [
      -13.02,
      4.49
    ],
    "description": "A Satellite Feature on the Moon with a diameter of 4.01 km.",
    "imageUrl": ""
  },
  {
    "id": "ALB-137",
    "name": "Albategnius S",
    "coordinates": [
      -13.35,
      6.05
    ],
    "description": "A Satellite Feature on the Moon with a diameter of 5.91 km.",
    "imageUrl": ""
  },
  {
    "id": "ALB-138",
    "name": "Albategnius T",
    "coordinates": [
      -12.66,
      6.06
    ],
    "description": "A Satellite Feature on the Moon with a diameter of 9.61 km.",
    "imageUrl": ""
  },
  {
    "id": "ALB-139",
    "name": "Albert",
    "coordinates": [
      38.32,
      -35.01
    ],
    "description": "A Crater, craters on the Moon with a diameter of 0.1 km.",
    "imageUrl": ""
  },
  {
    "id": "AL--140",
    "name": "Al-Biruni",
    "coordinates": [
      18.07,
      92.62
    ],
    "description": "A Crater, craters on the Moon with a diameter of 80.41 km.",
    "imageUrl": ""
  },
  {
    "id": "AL--141",
    "name": "Al-Biruni C",
    "coordinates": [
      18.42,
      93.06
    ],
    "description": "A Satellite Feature on the Moon with a diameter of 9.53 km.",
    "imageUrl": ""
  },
  {
    "id": "ALD-142",
    "name": "Alden",
    "coordinates": [
      -23.51,
      111.11
    ],
    "description": "A Crater, craters on the Moon with a diameter of 111.44 km.",
    "imageUrl": ""
  },
  {
    "id": "ALD-143",
    "name": "Alden B",
    "coordinates": [
      -20.6,
      113.11
    ],
    "description": "A Satellite Feature on the Moon with a diameter of 15.1 km.",
    "imageUrl": ""
  },
  {
    "id": "ALD-144",
    "name": "Alden C",
    "coordinates": [
      -22.69,
      111.74
    ],
    "description": "A Satellite Feature on the Moon with a diameter of 56.81 km.",
    "imageUrl": ""
  },
  {
    "id": "ALD-145",
    "name": "Alden E",
    "coordinates": [
      -23.42,
      112.81
    ],
    "description": "A Satellite Feature on the Moon with a diameter of 26.37 km.",
    "imageUrl": ""
  },
  {
    "id": "ALD-146",
    "name": "Alden V",
    "coordinates": [
      -22.7,
      110.46
    ],
    "description": "A Satellite Feature on the Moon with a diameter of 20.89 km.",
    "imageUrl": ""
  },
  {
    "id": "ALD-147",
    "name": "Alder",
    "coordinates": [
      -48.63,
      -177.88
    ],
    "description": "A Crater, craters on the Moon with a diameter of 82.12 km.",
    "imageUrl": ""
  },
  {
    "id": "ALD-148",
    "name": "Alder E",
    "coordinates": [
      -47.97,
      -173.5
    ],
    "description": "A Satellite Feature on the Moon with a diameter of 18.63 km.",
    "imageUrl": ""
  },
  {
    "id": "ALD-149",
    "name": "Aldrin",
    "coordinates": [
      1.41,
      22.09
    ],
    "description": "A Crater, craters on the Moon with a diameter of 2.8 km.",
    "imageUrl": ""
  },
  {
    "id": "ALE-150",
    "name": "Alekhin",
    "coordinates": [
      -67.94,
      -131.85
    ],
    "description": "A Crater, craters on the Moon with a diameter of 74.82 km.",
    "imageUrl": ""
  },
  {
    "id": "ALE-151",
    "name": "Alekhin E",
    "coordinates": [
      -66.96,
      -124.58
    ],
    "description": "A Satellite Feature on the Moon with a diameter of 39.6 km.",
    "imageUrl": ""
  },
  {
    "id": "ALE-152",
    "name": "Alexander",
    "coordinates": [
      40.25,
      13.69
    ],
    "description": "A Crater, craters on the Moon with a diameter of 94.8 km.",
    "imageUrl": ""
  },
  {
    "id": "ALE-153",
    "name": "Alexander A",
    "coordinates": [
      40.78,
      14.94
    ],
    "description": "A Satellite Feature on the Moon with a diameter of 3.99 km.",
    "imageUrl": ""
  },
  {
    "id": "ALE-154",
    "name": "Alexander B",
    "coordinates": [
      40.28,
      15.14
    ],
    "description": "A Satellite Feature on the Moon with a diameter of 3.89 km.",
    "imageUrl": ""
  },
  {
    "id": "ALE-155",
    "name": "Alexander C",
    "coordinates": [
      38.52,
      14.95
    ],
    "description": "A Satellite Feature on the Moon with a diameter of 4.23 km.",
    "imageUrl": ""
  },
  {
    "id": "ALE-156",
    "name": "Alexander K",
    "coordinates": [
      40.52,
      19.35
    ],
    "description": "A Satellite Feature on the Moon with a diameter of 3.95 km.",
    "imageUrl": ""
  },
  {
    "id": "ALF-157",
    "name": "Alfraganus",
    "coordinates": [
      -5.42,
      18.97
    ],
    "description": "A Crater, craters on the Moon with a diameter of 20.52 km.",
    "imageUrl": ""
  },
  {
    "id": "ALF-158",
    "name": "Alfraganus A",
    "coordinates": [
      -3.05,
      20.32
    ],
    "description": "A Satellite Feature on the Moon with a diameter of 13.87 km.",
    "imageUrl": ""
  },
  {
    "id": "ALF-159",
    "name": "Alfraganus C",
    "coordinates": [
      -6.13,
      18.09
    ],
    "description": "A Satellite Feature on the Moon with a diameter of 10.3 km.",
    "imageUrl": ""
  },
  {
    "id": "ALF-160",
    "name": "Alfraganus D",
    "coordinates": [
      -4.05,
      20.14
    ],
    "description": "A Satellite Feature on the Moon with a diameter of 8.29 km.",
    "imageUrl": ""
  },
  {
    "id": "ALF-161",
    "name": "Alfraganus E",
    "coordinates": [
      -4.62,
      19.0
    ],
    "description": "A Satellite Feature on the Moon with a diameter of 3.85 km.",
    "imageUrl": ""
  },
  {
    "id": "ALF-162",
    "name": "Alfraganus F",
    "coordinates": [
      -3.54,
      20.84
    ],
    "description": "A Satellite Feature on the Moon with a diameter of 8.64 km.",
    "imageUrl": ""
  },
  {
    "id": "ALF-163",
    "name": "Alfraganus G",
    "coordinates": [
      -2.67,
      21.23
    ],
    "description": "A Satellite Feature on the Moon with a diameter of 5.74 km.",
    "imageUrl": ""
  },
  {
    "id": "ALF-164",
    "name": "Alfraganus H",
    "coordinates": [
      -4.36,
      19.16
    ],
    "description": "A Satellite Feature on the Moon with a diameter of 12 km.",
    "imageUrl": ""
  },
  {
    "id": "ALF-165",
    "name": "Alfraganus K",
    "coordinates": [
      -5.25,
      19.54
    ],
    "description": "A Satellite Feature on the Moon with a diameter of 2.95 km.",
    "imageUrl": ""
  },
  {
    "id": "ALF-166",
    "name": "Alfraganus M",
    "coordinates": [
      -5.66,
      19.56
    ],
    "description": "A Satellite Feature on the Moon with a diameter of 3.16 km.",
    "imageUrl": ""
  },
  {
    "id": "ALH-167",
    "name": "Alhazen",
    "coordinates": [
      15.91,
      71.83
    ],
    "description": "A Crater, craters on the Moon with a diameter of 34.65 km.",
    "imageUrl": ""
  },
  {
    "id": "ALH-168",
    "name": "Alhazen A",
    "coordinates": [
      16.17,
      74.3
    ],
    "description": "A Satellite Feature on the Moon with a diameter of 16.14 km.",
    "imageUrl": ""
  },
  {
    "id": "ALH-169",
    "name": "Alhazen D",
    "coordinates": [
      19.68,
      75.17
    ],
    "description": "A Satellite Feature on the Moon with a diameter of 34.23 km.",
    "imageUrl": ""
  },
  {
    "id": "ALI-170",
    "name": "Aliacensis",
    "coordinates": [
      -30.6,
      5.13
    ],
    "description": "A Crater, craters on the Moon with a diameter of 79.65 km.",
    "imageUrl": ""
  },
  {
    "id": "ALI-171",
    "name": "Aliacensis A",
    "coordinates": [
      -29.71,
      7.39
    ],
    "description": "A Satellite Feature on the Moon with a diameter of 13.61 km.",
    "imageUrl": ""
  },
  {
    "id": "ALI-172",
    "name": "Aliacensis B",
    "coordinates": [
      -31.43,
      3.2
    ],
    "description": "A Satellite Feature on the Moon with a diameter of 15.81 km.",
    "imageUrl": ""
  },
  {
    "id": "ALI-173",
    "name": "Aliacensis C",
    "coordinates": [
      -32.7,
      5.42
    ],
    "description": "A Satellite Feature on the Moon with a diameter of 7.93 km.",
    "imageUrl": ""
  },
  {
    "id": "ALI-174",
    "name": "Aliacensis D",
    "coordinates": [
      -33.19,
      6.82
    ],
    "description": "A Satellite Feature on the Moon with a diameter of 9.67 km.",
    "imageUrl": ""
  },
  {
    "id": "ALI-175",
    "name": "Aliacensis E",
    "coordinates": [
      -30.42,
      2.32
    ],
    "description": "A Satellite Feature on the Moon with a diameter of 8.74 km.",
    "imageUrl": ""
  },
  {
    "id": "ALI-176",
    "name": "Aliacensis F",
    "coordinates": [
      -32.66,
      3.84
    ],
    "description": "A Satellite Feature on the Moon with a diameter of 4.82 km.",
    "imageUrl": ""
  },
  {
    "id": "ALI-177",
    "name": "Aliacensis G",
    "coordinates": [
      -33.39,
      4.7
    ],
    "description": "A Satellite Feature on the Moon with a diameter of 7.76 km.",
    "imageUrl": ""
  },
  {
    "id": "ALI-178",
    "name": "Aliacensis H",
    "coordinates": [
      -31.81,
      6.01
    ],
    "description": "A Satellite Feature on the Moon with a diameter of 5.58 km.",
    "imageUrl": ""
  },
  {
    "id": "ALI-179",
    "name": "Aliacensis K",
    "coordinates": [
      -31.43,
      6.26
    ],
    "description": "A Satellite Feature on the Moon with a diameter of 5.65 km.",
    "imageUrl": ""
  },
  {
    "id": "ALI-180",
    "name": "Aliacensis W",
    "coordinates": [
      -31.9,
      5.32
    ],
    "description": "A Satellite Feature on the Moon with a diameter of 10.32 km.",
    "imageUrl": ""
  },
  {
    "id": "ALI-181",
    "name": "Aliacensis X",
    "coordinates": [
      -29.64,
      6.78
    ],
    "description": "A Satellite Feature on the Moon with a diameter of 3.66 km.",
    "imageUrl": ""
  },
  {
    "id": "ALI-182",
    "name": "Aliacensis Y",
    "coordinates": [
      -30.11,
      7.33
    ],
    "description": "A Satellite Feature on the Moon with a diameter of 4.7 km.",
    "imageUrl": ""
  },
  {
    "id": "ALI-183",
    "name": "Aliacensis Z",
    "coordinates": [
      -30.05,
      4.49
    ],
    "description": "A Satellite Feature on the Moon with a diameter of 3.83 km.",
    "imageUrl": ""
  },
  {
    "id": "AL--184",
    "name": "Al-Khwarizmi",
    "coordinates": [
      7.02,
      107.01
    ],
    "description": "A Crater, craters on the Moon with a diameter of 56.25 km.",
    "imageUrl": ""
  },
  {
    "id": "AL--185",
    "name": "Al-Khwarizmi B",
    "coordinates": [
      9.09,
      107.92
    ],
    "description": "A Satellite Feature on the Moon with a diameter of 59.06 km.",
    "imageUrl": ""
  },
  {
    "id": "AL--186",
    "name": "Al-Khwarizmi G",
    "coordinates": [
      6.76,
      107.35
    ],
    "description": "A Satellite Feature on the Moon with a diameter of 102.83 km.",
    "imageUrl": ""
  },
  {
    "id": "AL--187",
    "name": "Al-Khwarizmi H",
    "coordinates": [
      5.85,
      109.77
    ],
    "description": "A Satellite Feature on the Moon with a diameter of 49.72 km.",
    "imageUrl": ""
  },
  {
    "id": "AL--188",
    "name": "Al-Khwarizmi J",
    "coordinates": [
      6.19,
      108.14
    ],
    "description": "A Satellite Feature on the Moon with a diameter of 44.68 km.",
    "imageUrl": ""
  },
  {
    "id": "AL--189",
    "name": "Al-Khwarizmi K",
    "coordinates": [
      4.5,
      108.15
    ],
    "description": "A Satellite Feature on the Moon with a diameter of 22.36 km.",
    "imageUrl": ""
  },
  {
    "id": "AL--190",
    "name": "Al-Khwarizmi L",
    "coordinates": [
      3.77,
      107.89
    ],
    "description": "A Satellite Feature on the Moon with a diameter of 35.51 km.",
    "imageUrl": ""
  },
  {
    "id": "AL--191",
    "name": "Al-Khwarizmi M",
    "coordinates": [
      3.05,
      107.44
    ],
    "description": "A Satellite Feature on the Moon with a diameter of 16.4 km.",
    "imageUrl": ""
  },
  {
    "id": "AL--192",
    "name": "Al-Khwarizmi T",
    "coordinates": [
      7.06,
      104.96
    ],
    "description": "A Satellite Feature on the Moon with a diameter of 14.05 km.",
    "imageUrl": ""
  },
  {
    "id": "ALM-193",
    "name": "Almanon",
    "coordinates": [
      -16.85,
      15.14
    ],
    "description": "A Crater, craters on the Moon with a diameter of 47.76 km.",
    "imageUrl": ""
  },
  {
    "id": "ALM-194",
    "name": "Almanon A",
    "coordinates": [
      -17.79,
      15.32
    ],
    "description": "A Satellite Feature on the Moon with a diameter of 9.75 km.",
    "imageUrl": ""
  },
  {
    "id": "ALM-195",
    "name": "Almanon B",
    "coordinates": [
      -18.33,
      15.26
    ],
    "description": "A Satellite Feature on the Moon with a diameter of 23.6 km.",
    "imageUrl": ""
  },
  {
    "id": "ALM-196",
    "name": "Almanon C",
    "coordinates": [
      -16.16,
      15.98
    ],
    "description": "A Satellite Feature on the Moon with a diameter of 15.62 km.",
    "imageUrl": ""
  },
  {
    "id": "ALM-197",
    "name": "Almanon D",
    "coordinates": [
      -18.6,
      15.54
    ],
    "description": "A Satellite Feature on the Moon with a diameter of 5.33 km.",
    "imageUrl": ""
  },
  {
    "id": "ALM-198",
    "name": "Almanon E",
    "coordinates": [
      -17.91,
      13.63
    ],
    "description": "A Satellite Feature on the Moon with a diameter of 5.37 km.",
    "imageUrl": ""
  },
  {
    "id": "ALM-199",
    "name": "Almanon F",
    "coordinates": [
      -15.92,
      14.27
    ],
    "description": "A Satellite Feature on the Moon with a diameter of 5.23 km.",
    "imageUrl": ""
  },
  {
    "id": "ALM-200",
    "name": "Almanon G",
    "coordinates": [
      -17.93,
      14.61
    ],
    "description": "A Satellite Feature on the Moon with a diameter of 4.47 km.",
    "imageUrl": ""
  },
  {
    "id": "ALM-201",
    "name": "Almanon H",
    "coordinates": [
      -19.03,
      15.22
    ],
    "description": "A Satellite Feature on the Moon with a diameter of 6.05 km.",
    "imageUrl": ""
  },
  {
    "id": "ALM-202",
    "name": "Almanon K",
    "coordinates": [
      -15.84,
      15.43
    ],
    "description": "A Satellite Feature on the Moon with a diameter of 6.46 km.",
    "imageUrl": ""
  },
  {
    "id": "ALM-203",
    "name": "Almanon L",
    "coordinates": [
      -19.0,
      16.58
    ],
    "description": "A Satellite Feature on the Moon with a diameter of 5.88 km.",
    "imageUrl": ""
  },
  {
    "id": "ALM-204",
    "name": "Almanon P",
    "coordinates": [
      -18.55,
      17.0
    ],
    "description": "A Satellite Feature on the Moon with a diameter of 19.44 km.",
    "imageUrl": ""
  },
  {
    "id": "ALM-205",
    "name": "Almanon Q",
    "coordinates": [
      -18.08,
      17.0
    ],
    "description": "A Satellite Feature on the Moon with a diameter of 4.63 km.",
    "imageUrl": ""
  },
  {
    "id": "ALM-206",
    "name": "Almanon R",
    "coordinates": [
      -18.17,
      15.88
    ],
    "description": "A Satellite Feature on the Moon with a diameter of 3.51 km.",
    "imageUrl": ""
  },
  {
    "id": "AL--207",
    "name": "Al-Marrakushi",
    "coordinates": [
      -10.45,
      55.77
    ],
    "description": "A Crater, craters on the Moon with a diameter of 8.57 km.",
    "imageUrl": ""
  },
  {
    "id": "ALO-208",
    "name": "Aloha",
    "coordinates": [
      29.79,
      -53.88
    ],
    "description": "A Crater, craters on the Moon with a diameter of 2.55 km.",
    "imageUrl": ""
  },
  {
    "id": "ALP-209",
    "name": "Alpes A",
    "coordinates": [
      51.39,
      -0.3
    ],
    "description": "A Satellite Feature on the Moon with a diameter of 10.66 km.",
    "imageUrl": ""
  },
  {
    "id": "ALP-210",
    "name": "Alpes B",
    "coordinates": [
      45.81,
      -0.91
    ],
    "description": "A Satellite Feature on the Moon with a diameter of 4.82 km.",
    "imageUrl": ""
  },
  {
    "id": "ALP-211",
    "name": "Alpetragius",
    "coordinates": [
      -16.05,
      -4.51
    ],
    "description": "A Crater, craters on the Moon with a diameter of 40.02 km.",
    "imageUrl": ""
  },
  {
    "id": "ALP-212",
    "name": "Alpetragius B",
    "coordinates": [
      -15.13,
      -6.88
    ],
    "description": "A Satellite Feature on the Moon with a diameter of 9.73 km.",
    "imageUrl": ""
  },
  {
    "id": "ALP-213",
    "name": "Alpetragius C",
    "coordinates": [
      -13.75,
      -6.17
    ],
    "description": "A Satellite Feature on the Moon with a diameter of 2.11 km.",
    "imageUrl": ""
  },
  {
    "id": "ALP-214",
    "name": "Alpetragius G",
    "coordinates": [
      -18.17,
      -6.56
    ],
    "description": "A Satellite Feature on the Moon with a diameter of 12.18 km.",
    "imageUrl": ""
  },
  {
    "id": "ALP-215",
    "name": "Alpetragius H",
    "coordinates": [
      -18.01,
      -6.1
    ],
    "description": "A Satellite Feature on the Moon with a diameter of 4.43 km.",
    "imageUrl": ""
  },
  {
    "id": "ALP-216",
    "name": "Alpetragius J",
    "coordinates": [
      -18.05,
      -5.7
    ],
    "description": "A Satellite Feature on the Moon with a diameter of 4.13 km.",
    "imageUrl": ""
  },
  {
    "id": "ALP-217",
    "name": "Alpetragius M",
    "coordinates": [
      -16.45,
      -3.27
    ],
    "description": "A Satellite Feature on the Moon with a diameter of 23.21 km.",
    "imageUrl": ""
  },
  {
    "id": "ALP-218",
    "name": "Alpetragius N",
    "coordinates": [
      -16.74,
      -3.88
    ],
    "description": "A Satellite Feature on the Moon with a diameter of 11.27 km.",
    "imageUrl": ""
  },
  {
    "id": "ALP-219",
    "name": "Alpetragius U",
    "coordinates": [
      -17.71,
      -5.11
    ],
    "description": "A Satellite Feature on the Moon with a diameter of 15.59 km.",
    "imageUrl": ""
  },
  {
    "id": "ALP-220",
    "name": "Alpetragius V",
    "coordinates": [
      -18.19,
      -5.83
    ],
    "description": "A Satellite Feature on the Moon with a diameter of 15.9 km.",
    "imageUrl": ""
  },
  {
    "id": "ALP-221",
    "name": "Alpetragius W",
    "coordinates": [
      -17.95,
      -5.96
    ],
    "description": "A Satellite Feature on the Moon with a diameter of 27.68 km.",
    "imageUrl": ""
  },
  {
    "id": "ALP-222",
    "name": "Alpetragius X",
    "coordinates": [
      -15.61,
      -5.74
    ],
    "description": "A Satellite Feature on the Moon with a diameter of 31.78 km.",
    "imageUrl": ""
  },
  {
    "id": "ALP-223",
    "name": "Alphonsus",
    "coordinates": [
      -13.39,
      -2.85
    ],
    "description": "A Crater, craters on the Moon with a diameter of 110.54 km.",
    "imageUrl": ""
  },
  {
    "id": "ALP-224",
    "name": "Alphonsus A",
    "coordinates": [
      -14.87,
      -2.27
    ],
    "description": "A Satellite Feature on the Moon with a diameter of 3.6 km.",
    "imageUrl": ""
  },
  {
    "id": "ALP-225",
    "name": "Alphonsus B",
    "coordinates": [
      -13.26,
      -0.2
    ],
    "description": "A Satellite Feature on the Moon with a diameter of 22.94 km.",
    "imageUrl": ""
  },
  {
    "id": "ALP-226",
    "name": "Alphonsus C",
    "coordinates": [
      -14.4,
      -4.87
    ],
    "description": "A Satellite Feature on the Moon with a diameter of 3.37 km.",
    "imageUrl": ""
  },
  {
    "id": "ALP-227",
    "name": "Alphonsus D",
    "coordinates": [
      -15.05,
      -0.85
    ],
    "description": "A Satellite Feature on the Moon with a diameter of 23.7 km.",
    "imageUrl": ""
  },
  {
    "id": "ALP-228",
    "name": "Alphonsus G",
    "coordinates": [
      -12.35,
      -3.39
    ],
    "description": "A Satellite Feature on the Moon with a diameter of 3.52 km.",
    "imageUrl": ""
  },
  {
    "id": "ALP-229",
    "name": "Alphonsus H",
    "coordinates": [
      -15.62,
      -0.53
    ],
    "description": "A Satellite Feature on the Moon with a diameter of 7.01 km.",
    "imageUrl": ""
  },
  {
    "id": "ALP-230",
    "name": "Alphonsus J",
    "coordinates": [
      -15.14,
      -2.51
    ],
    "description": "A Satellite Feature on the Moon with a diameter of 7.9 km.",
    "imageUrl": ""
  },
  {
    "id": "ALP-231",
    "name": "Alphonsus K",
    "coordinates": [
      -12.61,
      -0.11
    ],
    "description": "A Satellite Feature on the Moon with a diameter of 20.6 km.",
    "imageUrl": ""
  },
  {
    "id": "ALP-232",
    "name": "Alphonsus L",
    "coordinates": [
      -12.02,
      -3.72
    ],
    "description": "A Satellite Feature on the Moon with a diameter of 3.75 km.",
    "imageUrl": ""
  },
  {
    "id": "ALP-233",
    "name": "Alphonsus R",
    "coordinates": [
      -14.39,
      -1.92
    ],
    "description": "A Satellite Feature on the Moon with a diameter of 3.01 km.",
    "imageUrl": ""
  },
  {
    "id": "ALP-234",
    "name": "Alphonsus X",
    "coordinates": [
      -14.99,
      -4.46
    ],
    "description": "A Satellite Feature on the Moon with a diameter of 4.68 km.",
    "imageUrl": ""
  },
  {
    "id": "ALP-235",
    "name": "Alphonsus Y",
    "coordinates": [
      -14.71,
      -1.92
    ],
    "description": "A Satellite Feature on the Moon with a diameter of 2.6 km.",
    "imageUrl": ""
  },
  {
    "id": "ALT-236",
    "name": "Alter",
    "coordinates": [
      18.74,
      -107.8
    ],
    "description": "A Crater, craters on the Moon with a diameter of 64.73 km.",
    "imageUrl": ""
  },
  {
    "id": "ALT-237",
    "name": "Alter K",
    "coordinates": [
      16.22,
      -106.19
    ],
    "description": "A Satellite Feature on the Moon with a diameter of 21.64 km.",
    "imageUrl": ""
  },
  {
    "id": "ALT-238",
    "name": "Alter W",
    "coordinates": [
      20.38,
      -109.41
    ],
    "description": "A Satellite Feature on the Moon with a diameter of 51.47 km.",
    "imageUrl": ""
  },
  {
    "id": "AME-239",
    "name": "Ameghino",
    "coordinates": [
      3.3,
      57.04
    ],
    "description": "A Crater, craters on the Moon with a diameter of 9.2 km.",
    "imageUrl": ""
  },
  {
    "id": "AMI-240",
    "name": "Amici",
    "coordinates": [
      -10.06,
      -172.23
    ],
    "description": "A Crater, craters on the Moon with a diameter of 52.03 km.",
    "imageUrl": ""
  },
  {
    "id": "AMI-241",
    "name": "Amici M",
    "coordinates": [
      -11.81,
      -172.02
    ],
    "description": "A Satellite Feature on the Moon with a diameter of 107.91 km.",
    "imageUrl": ""
  },
  {
    "id": "AMI-242",
    "name": "Amici N",
    "coordinates": [
      -11.88,
      -172.54
    ],
    "description": "A Satellite Feature on the Moon with a diameter of 37.63 km.",
    "imageUrl": ""
  },
  {
    "id": "AMI-243",
    "name": "Amici P",
    "coordinates": [
      -12.35,
      -174.13
    ],
    "description": "A Satellite Feature on the Moon with a diameter of 24.93 km.",
    "imageUrl": ""
  },
  {
    "id": "AMI-244",
    "name": "Amici Q",
    "coordinates": [
      -12.34,
      -175.89
    ],
    "description": "A Satellite Feature on the Moon with a diameter of 43.59 km.",
    "imageUrl": ""
  },
  {
    "id": "AMI-245",
    "name": "Amici R",
    "coordinates": [
      -11.5,
      -175.32
    ],
    "description": "A Satellite Feature on the Moon with a diameter of 34.77 km.",
    "imageUrl": ""
  },
  {
    "id": "AMI-246",
    "name": "Amici T",
    "coordinates": [
      -9.91,
      -174.07
    ],
    "description": "A Satellite Feature on the Moon with a diameter of 38.06 km.",
    "imageUrl": ""
  },
  {
    "id": "AMI-247",
    "name": "Amici U",
    "coordinates": [
      -8.75,
      -175.47
    ],
    "description": "A Satellite Feature on the Moon with a diameter of 88.73 km.",
    "imageUrl": ""
  },
  {
    "id": "AMM-248",
    "name": "Ammonius",
    "coordinates": [
      -8.52,
      -0.83
    ],
    "description": "A Crater, craters on the Moon with a diameter of 8.55 km.",
    "imageUrl": ""
  },
  {
    "id": "AMO-249",
    "name": "Amontons",
    "coordinates": [
      -5.34,
      46.78
    ],
    "description": "A Crater, craters on the Moon with a diameter of 2.47 km.",
    "imageUrl": ""
  },
  {
    "id": "AMU-250",
    "name": "Amundsen",
    "coordinates": [
      -84.44,
      83.07
    ],
    "description": "A Crater, craters on the Moon with a diameter of 103.39 km.",
    "imageUrl": ""
  },
  {
    "id": "[AM-251",
    "name": "[Amundsen A]",
    "coordinates": [
      -81.8,
      83.1
    ],
    "description": "A Satellite Feature on the Moon with a diameter of 0 km.",
    "imageUrl": ""
  },
  {
    "id": "AMU-252",
    "name": "Amundsen C",
    "coordinates": [
      -80.76,
      85.21
    ],
    "description": "A Satellite Feature on the Moon with a diameter of 24.22 km.",
    "imageUrl": ""
  },
  {
    "id": "ANA-253",
    "name": "Anaxagoras",
    "coordinates": [
      73.48,
      -10.17
    ],
    "description": "A Crater, craters on the Moon with a diameter of 51.9 km.",
    "imageUrl": ""
  },
  {
    "id": "ANA-254",
    "name": "Anaxagoras A",
    "coordinates": [
      72.26,
      -7.02
    ],
    "description": "A Satellite Feature on the Moon with a diameter of 20.09 km.",
    "imageUrl": ""
  },
  {
    "id": "ANA-255",
    "name": "Anaxagoras B",
    "coordinates": [
      70.35,
      -11.36
    ],
    "description": "A Satellite Feature on the Moon with a diameter of 4.95 km.",
    "imageUrl": ""
  },
  {
    "id": "ANA-256",
    "name": "Anaximander",
    "coordinates": [
      66.97,
      -51.44
    ],
    "description": "A Crater, craters on the Moon with a diameter of 68.71 km.",
    "imageUrl": ""
  },
  {
    "id": "ANA-257",
    "name": "Anaximander A",
    "coordinates": [
      68.05,
      -50.4
    ],
    "description": "A Satellite Feature on the Moon with a diameter of 15.24 km.",
    "imageUrl": ""
  },
  {
    "id": "ANA-258",
    "name": "Anaximander B",
    "coordinates": [
      68.08,
      -61.21
    ],
    "description": "A Satellite Feature on the Moon with a diameter of 79.1 km.",
    "imageUrl": ""
  },
  {
    "id": "ANA-259",
    "name": "Anaximander D",
    "coordinates": [
      65.78,
      -50.68
    ],
    "description": "A Satellite Feature on the Moon with a diameter of 96.63 km.",
    "imageUrl": ""
  },
  {
    "id": "ANA-260",
    "name": "Anaximander H",
    "coordinates": [
      65.29,
      -41.06
    ],
    "description": "A Satellite Feature on the Moon with a diameter of 9.03 km.",
    "imageUrl": ""
  },
  {
    "id": "ANA-261",
    "name": "Anaximander R",
    "coordinates": [
      66.32,
      -55.21
    ],
    "description": "A Satellite Feature on the Moon with a diameter of 8.05 km.",
    "imageUrl": ""
  },
  {
    "id": "ANA-262",
    "name": "Anaximander S",
    "coordinates": [
      68.35,
      -53.6
    ],
    "description": "A Satellite Feature on the Moon with a diameter of 7.21 km.",
    "imageUrl": ""
  },
  {
    "id": "ANA-263",
    "name": "Anaximander T",
    "coordinates": [
      67.3,
      -52.27
    ],
    "description": "A Satellite Feature on the Moon with a diameter of 7.01 km.",
    "imageUrl": ""
  },
  {
    "id": "ANA-264",
    "name": "Anaximander U",
    "coordinates": [
      64.14,
      -48.5
    ],
    "description": "A Satellite Feature on the Moon with a diameter of 7.54 km.",
    "imageUrl": ""
  },
  {
    "id": "ANA-265",
    "name": "Anaximenes",
    "coordinates": [
      72.49,
      -44.98
    ],
    "description": "A Crater, craters on the Moon with a diameter of 81.12 km.",
    "imageUrl": ""
  },
  {
    "id": "ANA-266",
    "name": "Anaximenes B",
    "coordinates": [
      68.94,
      -38.06
    ],
    "description": "A Satellite Feature on the Moon with a diameter of 8.34 km.",
    "imageUrl": ""
  },
  {
    "id": "ANA-267",
    "name": "Anaximenes E",
    "coordinates": [
      66.58,
      -31.46
    ],
    "description": "A Satellite Feature on the Moon with a diameter of 10 km.",
    "imageUrl": ""
  },
  {
    "id": "ANA-268",
    "name": "Anaximenes G",
    "coordinates": [
      73.75,
      -40.5
    ],
    "description": "A Satellite Feature on the Moon with a diameter of 51.17 km.",
    "imageUrl": ""
  },
  {
    "id": "ANA-269",
    "name": "Anaximenes H",
    "coordinates": [
      74.64,
      -45.7
    ],
    "description": "A Satellite Feature on the Moon with a diameter of 42.72 km.",
    "imageUrl": ""
  },
  {
    "id": "AND-270",
    "name": "And\u011bl",
    "coordinates": [
      -10.41,
      12.38
    ],
    "description": "A Crater, craters on the Moon with a diameter of 32.93 km.",
    "imageUrl": ""
  },
  {
    "id": "AND-271",
    "name": "And\u011bl A",
    "coordinates": [
      -10.81,
      11.24
    ],
    "description": "A Satellite Feature on the Moon with a diameter of 13.4 km.",
    "imageUrl": ""
  },
  {
    "id": "AND-272",
    "name": "And\u011bl C",
    "coordinates": [
      -9.01,
      11.15
    ],
    "description": "A Satellite Feature on the Moon with a diameter of 3.01 km.",
    "imageUrl": ""
  },
  {
    "id": "AND-273",
    "name": "And\u011bl D",
    "coordinates": [
      -10.79,
      11.71
    ],
    "description": "A Satellite Feature on the Moon with a diameter of 5.98 km.",
    "imageUrl": ""
  },
  {
    "id": "AND-274",
    "name": "And\u011bl E",
    "coordinates": [
      -12.02,
      12.22
    ],
    "description": "A Satellite Feature on the Moon with a diameter of 5.7 km.",
    "imageUrl": ""
  },
  {
    "id": "AND-275",
    "name": "And\u011bl F",
    "coordinates": [
      -8.34,
      11.08
    ],
    "description": "A Satellite Feature on the Moon with a diameter of 9.22 km.",
    "imageUrl": ""
  },
  {
    "id": "AND-276",
    "name": "And\u011bl G",
    "coordinates": [
      -10.94,
      12.31
    ],
    "description": "A Satellite Feature on the Moon with a diameter of 4.12 km.",
    "imageUrl": ""
  },
  {
    "id": "AND-277",
    "name": "And\u011bl H",
    "coordinates": [
      -6.67,
      11.31
    ],
    "description": "A Satellite Feature on the Moon with a diameter of 5.25 km.",
    "imageUrl": ""
  },
  {
    "id": "AND-278",
    "name": "And\u011bl J",
    "coordinates": [
      -7.54,
      11.41
    ],
    "description": "A Satellite Feature on the Moon with a diameter of 5.52 km.",
    "imageUrl": ""
  },
  {
    "id": "AND-279",
    "name": "And\u011bl K",
    "coordinates": [
      -5.83,
      11.56
    ],
    "description": "A Satellite Feature on the Moon with a diameter of 3.69 km.",
    "imageUrl": ""
  },
  {
    "id": "AND-280",
    "name": "And\u011bl M",
    "coordinates": [
      -9.75,
      11.12
    ],
    "description": "A Satellite Feature on the Moon with a diameter of 26.46 km.",
    "imageUrl": ""
  },
  {
    "id": "AND-281",
    "name": "And\u011bl N",
    "coordinates": [
      -10.24,
      11.34
    ],
    "description": "A Satellite Feature on the Moon with a diameter of 8.5 km.",
    "imageUrl": ""
  },
  {
    "id": "AND-282",
    "name": "And\u011bl P",
    "coordinates": [
      -11.65,
      12.2
    ],
    "description": "A Satellite Feature on the Moon with a diameter of 17.56 km.",
    "imageUrl": ""
  },
  {
    "id": "AND-283",
    "name": "And\u011bl S",
    "coordinates": [
      -11.4,
      12.7
    ],
    "description": "A Satellite Feature on the Moon with a diameter of 4.52 km.",
    "imageUrl": ""
  },
  {
    "id": "AND-284",
    "name": "And\u011bl T",
    "coordinates": [
      -11.25,
      13.24
    ],
    "description": "A Satellite Feature on the Moon with a diameter of 3.38 km.",
    "imageUrl": ""
  },
  {
    "id": "AND-285",
    "name": "And\u011bl W",
    "coordinates": [
      -12.36,
      12.26
    ],
    "description": "A Satellite Feature on the Moon with a diameter of 11.19 km.",
    "imageUrl": ""
  },
  {
    "id": "AND-286",
    "name": "Anders",
    "coordinates": [
      -41.31,
      -143.3
    ],
    "description": "A Crater, craters on the Moon with a diameter of 41.33 km.",
    "imageUrl": ""
  },
  {
    "id": "AND-287",
    "name": "Anders D",
    "coordinates": [
      -40.26,
      -140.86
    ],
    "description": "A Satellite Feature on the Moon with a diameter of 23.8 km.",
    "imageUrl": ""
  },
  {
    "id": "AND-288",
    "name": "Anders' Earthrise",
    "coordinates": [
      -11.73,
      100.47
    ],
    "description": "A Crater, craters on the Moon with a diameter of 40.15 km.",
    "imageUrl": ""
  },
  {
    "id": "AND-289",
    "name": "Anders G",
    "coordinates": [
      -41.81,
      -142.18
    ],
    "description": "A Satellite Feature on the Moon with a diameter of 20.46 km.",
    "imageUrl": ""
  },
  {
    "id": "AND-290",
    "name": "Anderson",
    "coordinates": [
      15.5,
      170.79
    ],
    "description": "A Crater, craters on the Moon with a diameter of 105.33 km.",
    "imageUrl": ""
  },
  {
    "id": "AND-291",
    "name": "Anderson E",
    "coordinates": [
      16.98,
      173.53
    ],
    "description": "A Satellite Feature on the Moon with a diameter of 28.23 km.",
    "imageUrl": ""
  },
  {
    "id": "AND-292",
    "name": "Anderson F",
    "coordinates": [
      16.28,
      173.8
    ],
    "description": "A Satellite Feature on the Moon with a diameter of 44.96 km.",
    "imageUrl": ""
  },
  {
    "id": "AND-293",
    "name": "Anderson L",
    "coordinates": [
      14.71,
      171.13
    ],
    "description": "A Satellite Feature on the Moon with a diameter of 14.15 km.",
    "imageUrl": ""
  },
  {
    "id": "AND-294",
    "name": "Andersson",
    "coordinates": [
      -49.95,
      -95.46
    ],
    "description": "A Crater, craters on the Moon with a diameter of 13.42 km.",
    "imageUrl": ""
  },
  {
    "id": "AND-295",
    "name": "Anders X",
    "coordinates": [
      -39.73,
      -144.25
    ],
    "description": "A Satellite Feature on the Moon with a diameter of 21.45 km.",
    "imageUrl": ""
  },
  {
    "id": "AND-296",
    "name": "Andronov",
    "coordinates": [
      -22.68,
      146.11
    ],
    "description": "A Crater, craters on the Moon with a diameter of 16.57 km.",
    "imageUrl": ""
  },
  {
    "id": "ANG-297",
    "name": "Ango",
    "coordinates": [
      20.48,
      -32.34
    ],
    "description": "A Crater, craters on the Moon with a diameter of 0.87 km.",
    "imageUrl": ""
  },
  {
    "id": "ANG-298",
    "name": "Angstr\u00f6m",
    "coordinates": [
      29.9,
      -41.67
    ],
    "description": "A Crater, craters on the Moon with a diameter of 9.55 km.",
    "imageUrl": ""
  },
  {
    "id": "ANG-299",
    "name": "Angstr\u00f6m A",
    "coordinates": [
      30.92,
      -41.15
    ],
    "description": "A Satellite Feature on the Moon with a diameter of 5.69 km.",
    "imageUrl": ""
  },
  {
    "id": "ANG-300",
    "name": "Angstr\u00f6m B",
    "coordinates": [
      31.76,
      -44.19
    ],
    "description": "A Satellite Feature on the Moon with a diameter of 5.56 km.",
    "imageUrl": ""
  },
  {
    "id": "ANN-301",
    "name": "Ann",
    "coordinates": [
      25.11,
      -0.05
    ],
    "description": "A Crater, craters on the Moon with a diameter of 2.12 km.",
    "imageUrl": ""
  },
  {
    "id": "ANN-302",
    "name": "Annegrit",
    "coordinates": [
      29.43,
      -25.64
    ],
    "description": "A Crater, craters on the Moon with a diameter of 1.29 km.",
    "imageUrl": ""
  },
  {
    "id": "ANS-303",
    "name": "Ansgarius",
    "coordinates": [
      -12.92,
      79.72
    ],
    "description": "A Crater, craters on the Moon with a diameter of 91.42 km.",
    "imageUrl": ""
  },
  {
    "id": "ANS-304",
    "name": "Ansgarius B",
    "coordinates": [
      -11.99,
      84.11
    ],
    "description": "A Satellite Feature on the Moon with a diameter of 33.1 km.",
    "imageUrl": ""
  },
  {
    "id": "ANS-305",
    "name": "Ansgarius C",
    "coordinates": [
      -14.79,
      74.83
    ],
    "description": "A Satellite Feature on the Moon with a diameter of 15.59 km.",
    "imageUrl": ""
  },
  {
    "id": "ANS-306",
    "name": "Ansgarius M",
    "coordinates": [
      -11.25,
      78.79
    ],
    "description": "A Satellite Feature on the Moon with a diameter of 7.56 km.",
    "imageUrl": ""
  },
  {
    "id": "ANS-307",
    "name": "Ansgarius N",
    "coordinates": [
      -11.91,
      81.18
    ],
    "description": "A Satellite Feature on the Moon with a diameter of 10.23 km.",
    "imageUrl": ""
  },
  {
    "id": "ANS-308",
    "name": "Ansgarius P",
    "coordinates": [
      -13.06,
      75.66
    ],
    "description": "A Satellite Feature on the Moon with a diameter of 10.35 km.",
    "imageUrl": ""
  },
  {
    "id": "ANT-309",
    "name": "Antoniadi",
    "coordinates": [
      -69.3,
      -173.06
    ],
    "description": "A Crater, craters on the Moon with a diameter of 137.92 km.",
    "imageUrl": ""
  },
  {
    "id": "ANU-310",
    "name": "Anuchin",
    "coordinates": [
      -48.85,
      101.66
    ],
    "description": "A Crater, craters on the Moon with a diameter of 62.14 km.",
    "imageUrl": ""
  },
  {
    "id": "ANU-311",
    "name": "Anuchin B",
    "coordinates": [
      -46.44,
      103.57
    ],
    "description": "A Satellite Feature on the Moon with a diameter of 25.59 km.",
    "imageUrl": ""
  },
  {
    "id": "ANU-312",
    "name": "Anuchin L",
    "coordinates": [
      -49.84,
      101.92
    ],
    "description": "A Satellite Feature on the Moon with a diameter of 16.04 km.",
    "imageUrl": ""
  },
  {
    "id": "ANU-313",
    "name": "Anuchin N",
    "coordinates": [
      -51.28,
      100.03
    ],
    "description": "A Satellite Feature on the Moon with a diameter of 30.68 km.",
    "imageUrl": ""
  },
  {
    "id": "ANU-314",
    "name": "Anuchin Q",
    "coordinates": [
      -50.82,
      98.77
    ],
    "description": "A Satellite Feature on the Moon with a diameter of 51.43 km.",
    "imageUrl": ""
  },
  {
    "id": "ANU-315",
    "name": "Anuchin V",
    "coordinates": [
      -47.81,
      99.8
    ],
    "description": "A Satellite Feature on the Moon with a diameter of 15.18 km.",
    "imageUrl": ""
  },
  {
    "id": "ANV-316",
    "name": "Anville",
    "coordinates": [
      1.84,
      49.51
    ],
    "description": "A Crater, craters on the Moon with a diameter of 10.26 km.",
    "imageUrl": ""
  },
  {
    "id": "APE-317",
    "name": "Apennine Front",
    "coordinates": [
      25.92,
      3.68
    ],
    "description": "A Astronaut-named features on the Moon with a diameter of 6.63 km.",
    "imageUrl": ""
  },
  {
    "id": "API-318",
    "name": "Apianus",
    "coordinates": [
      -26.96,
      7.87
    ],
    "description": "A Crater, craters on the Moon with a diameter of 63.44 km.",
    "imageUrl": ""
  },
  {
    "id": "API-319",
    "name": "Apianus A",
    "coordinates": [
      -25.7,
      6.52
    ],
    "description": "A Satellite Feature on the Moon with a diameter of 13.11 km.",
    "imageUrl": ""
  },
  {
    "id": "API-320",
    "name": "Apianus B",
    "coordinates": [
      -27.4,
      8.99
    ],
    "description": "A Satellite Feature on the Moon with a diameter of 10.21 km.",
    "imageUrl": ""
  },
  {
    "id": "API-321",
    "name": "Apianus C",
    "coordinates": [
      -28.13,
      10.46
    ],
    "description": "A Satellite Feature on the Moon with a diameter of 19.64 km.",
    "imageUrl": ""
  },
  {
    "id": "API-322",
    "name": "Apianus D",
    "coordinates": [
      -26.08,
      10.66
    ],
    "description": "A Satellite Feature on the Moon with a diameter of 33.66 km.",
    "imageUrl": ""
  },
  {
    "id": "API-323",
    "name": "Apianus E",
    "coordinates": [
      -28.85,
      8.19
    ],
    "description": "A Satellite Feature on the Moon with a diameter of 8.39 km.",
    "imageUrl": ""
  },
  {
    "id": "API-324",
    "name": "Apianus F",
    "coordinates": [
      -28.14,
      6.33
    ],
    "description": "A Satellite Feature on the Moon with a diameter of 5.39 km.",
    "imageUrl": ""
  },
  {
    "id": "API-325",
    "name": "Apianus G",
    "coordinates": [
      -28.12,
      7.64
    ],
    "description": "A Satellite Feature on the Moon with a diameter of 4.02 km.",
    "imageUrl": ""
  },
  {
    "id": "API-326",
    "name": "Apianus H",
    "coordinates": [
      -28.15,
      8.64
    ],
    "description": "A Satellite Feature on the Moon with a diameter of 6.57 km.",
    "imageUrl": ""
  },
  {
    "id": "API-327",
    "name": "Apianus J",
    "coordinates": [
      -26.33,
      8.52
    ],
    "description": "A Satellite Feature on the Moon with a diameter of 6.71 km.",
    "imageUrl": ""
  },
  {
    "id": "API-328",
    "name": "Apianus K",
    "coordinates": [
      -27.48,
      9.31
    ],
    "description": "A Satellite Feature on the Moon with a diameter of 6.44 km.",
    "imageUrl": ""
  },
  {
    "id": "API-329",
    "name": "Apianus L",
    "coordinates": [
      -29.12,
      10.85
    ],
    "description": "A Satellite Feature on the Moon with a diameter of 4.67 km.",
    "imageUrl": ""
  },
  {
    "id": "API-330",
    "name": "Apianus M",
    "coordinates": [
      -24.78,
      10.29
    ],
    "description": "A Satellite Feature on the Moon with a diameter of 6.98 km.",
    "imageUrl": ""
  },
  {
    "id": "API-331",
    "name": "Apianus N",
    "coordinates": [
      -28.89,
      9.91
    ],
    "description": "A Satellite Feature on the Moon with a diameter of 3.46 km.",
    "imageUrl": ""
  },
  {
    "id": "API-332",
    "name": "Apianus P",
    "coordinates": [
      -25.29,
      9.13
    ],
    "description": "A Satellite Feature on the Moon with a diameter of 41.59 km.",
    "imageUrl": ""
  },
  {
    "id": "API-333",
    "name": "Apianus R",
    "coordinates": [
      -25.79,
      8.89
    ],
    "description": "A Satellite Feature on the Moon with a diameter of 13.1 km.",
    "imageUrl": ""
  },
  {
    "id": "API-334",
    "name": "Apianus S",
    "coordinates": [
      -25.81,
      8.47
    ],
    "description": "A Satellite Feature on the Moon with a diameter of 23.96 km.",
    "imageUrl": ""
  },
  {
    "id": "API-335",
    "name": "Apianus T",
    "coordinates": [
      -27.73,
      9.45
    ],
    "description": "A Satellite Feature on the Moon with a diameter of 11.52 km.",
    "imageUrl": ""
  },
  {
    "id": "API-336",
    "name": "Apianus U",
    "coordinates": [
      -27.91,
      8.98
    ],
    "description": "A Satellite Feature on the Moon with a diameter of 16.82 km.",
    "imageUrl": ""
  },
  {
    "id": "API-337",
    "name": "Apianus V",
    "coordinates": [
      -25.19,
      10.4
    ],
    "description": "A Satellite Feature on the Moon with a diameter of 3.2 km.",
    "imageUrl": ""
  },
  {
    "id": "API-338",
    "name": "Apianus W",
    "coordinates": [
      -25.6,
      7.46
    ],
    "description": "A Satellite Feature on the Moon with a diameter of 9.68 km.",
    "imageUrl": ""
  },
  {
    "id": "API-339",
    "name": "Apianus X",
    "coordinates": [
      -28.34,
      7.02
    ],
    "description": "A Satellite Feature on the Moon with a diameter of 3.1 km.",
    "imageUrl": ""
  },
  {
    "id": "APO-340",
    "name": "Apollo",
    "coordinates": [
      -35.69,
      -151.48
    ],
    "description": "A Crater, craters on the Moon with a diameter of 524.23 km.",
    "imageUrl": ""
  },
  {
    "id": "APO-341",
    "name": "Apollonius",
    "coordinates": [
      4.51,
      60.96
    ],
    "description": "A Crater, craters on the Moon with a diameter of 50.66 km.",
    "imageUrl": ""
  },
  {
    "id": "APO-342",
    "name": "Apollonius A",
    "coordinates": [
      4.82,
      56.85
    ],
    "description": "A Satellite Feature on the Moon with a diameter of 24.55 km.",
    "imageUrl": ""
  },
  {
    "id": "APO-343",
    "name": "Apollonius B",
    "coordinates": [
      5.87,
      57.6
    ],
    "description": "A Satellite Feature on the Moon with a diameter of 31.17 km.",
    "imageUrl": ""
  },
  {
    "id": "APO-344",
    "name": "Apollonius E",
    "coordinates": [
      4.34,
      61.86
    ],
    "description": "A Satellite Feature on the Moon with a diameter of 16.55 km.",
    "imageUrl": ""
  },
  {
    "id": "APO-345",
    "name": "Apollonius F",
    "coordinates": [
      5.6,
      59.94
    ],
    "description": "A Satellite Feature on the Moon with a diameter of 14.72 km.",
    "imageUrl": ""
  },
  {
    "id": "APO-346",
    "name": "Apollonius H",
    "coordinates": [
      3.43,
      59.51
    ],
    "description": "A Satellite Feature on the Moon with a diameter of 19.04 km.",
    "imageUrl": ""
  },
  {
    "id": "APO-347",
    "name": "Apollonius J",
    "coordinates": [
      4.63,
      57.48
    ],
    "description": "A Satellite Feature on the Moon with a diameter of 11.7 km.",
    "imageUrl": ""
  },
  {
    "id": "APO-348",
    "name": "Apollonius L",
    "coordinates": [
      6.47,
      54.57
    ],
    "description": "A Satellite Feature on the Moon with a diameter of 10.12 km.",
    "imageUrl": ""
  },
  {
    "id": "APO-349",
    "name": "Apollonius M",
    "coordinates": [
      4.73,
      61.77
    ],
    "description": "A Satellite Feature on the Moon with a diameter of 9.54 km.",
    "imageUrl": ""
  },
  {
    "id": "APO-350",
    "name": "Apollonius N",
    "coordinates": [
      4.75,
      63.77
    ],
    "description": "A Satellite Feature on the Moon with a diameter of 10.79 km.",
    "imageUrl": ""
  },
  {
    "id": "APO-351",
    "name": "Apollonius S",
    "coordinates": [
      1.26,
      62.58
    ],
    "description": "A Satellite Feature on the Moon with a diameter of 16.22 km.",
    "imageUrl": ""
  },
  {
    "id": "APO-352",
    "name": "Apollonius U",
    "coordinates": [
      4.89,
      59.87
    ],
    "description": "A Satellite Feature on the Moon with a diameter of 8.44 km.",
    "imageUrl": ""
  },
  {
    "id": "APO-353",
    "name": "Apollonius V",
    "coordinates": [
      4.39,
      58.22
    ],
    "description": "A Satellite Feature on the Moon with a diameter of 14.97 km.",
    "imageUrl": ""
  },
  {
    "id": "APO-354",
    "name": "Apollonius X",
    "coordinates": [
      6.9,
      58.18
    ],
    "description": "A Satellite Feature on the Moon with a diameter of 28.97 km.",
    "imageUrl": ""
  },
  {
    "id": "APO-355",
    "name": "Apollonius Y",
    "coordinates": [
      4.88,
      62.6
    ],
    "description": "A Satellite Feature on the Moon with a diameter of 8.71 km.",
    "imageUrl": ""
  },
  {
    "id": "APP-356",
    "name": "Appleton",
    "coordinates": [
      37.05,
      158.17
    ],
    "description": "A Crater, craters on the Moon with a diameter of 64.59 km.",
    "imageUrl": ""
  },
  {
    "id": "APP-357",
    "name": "Appleton D",
    "coordinates": [
      37.77,
      160.63
    ],
    "description": "A Satellite Feature on the Moon with a diameter of 39.13 km.",
    "imageUrl": ""
  },
  {
    "id": "APP-358",
    "name": "Appleton M",
    "coordinates": [
      33.72,
      158.26
    ],
    "description": "A Satellite Feature on the Moon with a diameter of 25.03 km.",
    "imageUrl": ""
  },
  {
    "id": "APP-359",
    "name": "Appleton Q",
    "coordinates": [
      34.18,
      155.31
    ],
    "description": "A Satellite Feature on the Moon with a diameter of 22.66 km.",
    "imageUrl": ""
  },
  {
    "id": "APP-360",
    "name": "Appleton R",
    "coordinates": [
      36.13,
      156.25
    ],
    "description": "A Satellite Feature on the Moon with a diameter of 40.92 km.",
    "imageUrl": ""
  },
  {
    "id": "ARA-361",
    "name": "Arago",
    "coordinates": [
      6.15,
      21.43
    ],
    "description": "A Crater, craters on the Moon with a diameter of 25.51 km.",
    "imageUrl": ""
  },
  {
    "id": "ARA-362",
    "name": "Arago B",
    "coordinates": [
      3.43,
      20.82
    ],
    "description": "A Satellite Feature on the Moon with a diameter of 6.9 km.",
    "imageUrl": ""
  },
  {
    "id": "ARA-363",
    "name": "Arago C",
    "coordinates": [
      3.89,
      21.48
    ],
    "description": "A Satellite Feature on the Moon with a diameter of 3.03 km.",
    "imageUrl": ""
  },
  {
    "id": "ARA-364",
    "name": "Arago D",
    "coordinates": [
      6.91,
      22.39
    ],
    "description": "A Satellite Feature on the Moon with a diameter of 3.95 km.",
    "imageUrl": ""
  },
  {
    "id": "ARA-365",
    "name": "Arago E",
    "coordinates": [
      8.51,
      22.71
    ],
    "description": "A Satellite Feature on the Moon with a diameter of 6.28 km.",
    "imageUrl": ""
  },
  {
    "id": "ARA-366",
    "name": "Aratus",
    "coordinates": [
      23.58,
      4.51
    ],
    "description": "A Crater, craters on the Moon with a diameter of 10.23 km.",
    "imageUrl": ""
  },
  {
    "id": "ARA-367",
    "name": "Aratus B",
    "coordinates": [
      24.18,
      5.43
    ],
    "description": "A Satellite Feature on the Moon with a diameter of 6.69 km.",
    "imageUrl": ""
  },
  {
    "id": "ARA-368",
    "name": "Aratus C",
    "coordinates": [
      24.08,
      9.46
    ],
    "description": "A Satellite Feature on the Moon with a diameter of 3.56 km.",
    "imageUrl": ""
  },
  {
    "id": "ARA-369",
    "name": "Aratus CA",
    "coordinates": [
      24.56,
      11.18
    ],
    "description": "A Satellite Feature on the Moon with a diameter of 2.08 km.",
    "imageUrl": ""
  },
  {
    "id": "ARA-370",
    "name": "Aratus D",
    "coordinates": [
      24.37,
      8.61
    ],
    "description": "A Satellite Feature on the Moon with a diameter of 4.05 km.",
    "imageUrl": ""
  },
  {
    "id": "ARC-371",
    "name": "Archimedes",
    "coordinates": [
      29.72,
      -3.99
    ],
    "description": "A Crater, craters on the Moon with a diameter of 81.04 km.",
    "imageUrl": ""
  },
  {
    "id": "ARC-372",
    "name": "Archimedes C",
    "coordinates": [
      31.63,
      -1.53
    ],
    "description": "A Satellite Feature on the Moon with a diameter of 7.66 km.",
    "imageUrl": ""
  },
  {
    "id": "ARC-373",
    "name": "Archimedes D",
    "coordinates": [
      32.2,
      -2.69
    ],
    "description": "A Satellite Feature on the Moon with a diameter of 4.96 km.",
    "imageUrl": ""
  },
  {
    "id": "ARC-374",
    "name": "Archimedes E",
    "coordinates": [
      25.0,
      -7.2
    ],
    "description": "A Satellite Feature on the Moon with a diameter of 2.56 km.",
    "imageUrl": ""
  },
  {
    "id": "ARC-375",
    "name": "Archimedes G",
    "coordinates": [
      29.14,
      -8.15
    ],
    "description": "A Satellite Feature on the Moon with a diameter of 3.29 km.",
    "imageUrl": ""
  },
  {
    "id": "ARC-376",
    "name": "Archimedes H",
    "coordinates": [
      23.89,
      -7.02
    ],
    "description": "A Satellite Feature on the Moon with a diameter of 3.78 km.",
    "imageUrl": ""
  },
  {
    "id": "ARC-377",
    "name": "Archimedes L",
    "coordinates": [
      25.04,
      -2.61
    ],
    "description": "A Satellite Feature on the Moon with a diameter of 3.21 km.",
    "imageUrl": ""
  },
  {
    "id": "ARC-378",
    "name": "Archimedes M",
    "coordinates": [
      26.12,
      -3.21
    ],
    "description": "A Satellite Feature on the Moon with a diameter of 3.27 km.",
    "imageUrl": ""
  },
  {
    "id": "ARC-379",
    "name": "Archimedes N",
    "coordinates": [
      24.15,
      -3.89
    ],
    "description": "A Satellite Feature on the Moon with a diameter of 3.51 km.",
    "imageUrl": ""
  },
  {
    "id": "ARC-380",
    "name": "Archimedes P",
    "coordinates": [
      25.94,
      -2.5
    ],
    "description": "A Satellite Feature on the Moon with a diameter of 2.63 km.",
    "imageUrl": ""
  },
  {
    "id": "ARC-381",
    "name": "Archimedes Q",
    "coordinates": [
      28.52,
      -2.43
    ],
    "description": "A Satellite Feature on the Moon with a diameter of 2.36 km.",
    "imageUrl": ""
  },
  {
    "id": "ARC-382",
    "name": "Archimedes R",
    "coordinates": [
      26.07,
      -6.61
    ],
    "description": "A Satellite Feature on the Moon with a diameter of 3.5 km.",
    "imageUrl": ""
  },
  {
    "id": "ARC-383",
    "name": "Archimedes S",
    "coordinates": [
      29.56,
      -2.73
    ],
    "description": "A Satellite Feature on the Moon with a diameter of 2.77 km.",
    "imageUrl": ""
  },
  {
    "id": "ARC-384",
    "name": "Archimedes T",
    "coordinates": [
      30.3,
      -5.03
    ],
    "description": "A Satellite Feature on the Moon with a diameter of 2.33 km.",
    "imageUrl": ""
  },
  {
    "id": "ARC-385",
    "name": "Archimedes U",
    "coordinates": [
      32.83,
      -1.96
    ],
    "description": "A Satellite Feature on the Moon with a diameter of 2.74 km.",
    "imageUrl": ""
  },
  {
    "id": "ARC-386",
    "name": "Archimedes V",
    "coordinates": [
      32.98,
      -4.01
    ],
    "description": "A Satellite Feature on the Moon with a diameter of 2.67 km.",
    "imageUrl": ""
  },
  {
    "id": "ARC-387",
    "name": "Archimedes W",
    "coordinates": [
      23.8,
      -6.25
    ],
    "description": "A Satellite Feature on the Moon with a diameter of 3.19 km.",
    "imageUrl": ""
  },
  {
    "id": "ARC-388",
    "name": "Archimedes X",
    "coordinates": [
      31.03,
      -8.02
    ],
    "description": "A Satellite Feature on the Moon with a diameter of 2.15 km.",
    "imageUrl": ""
  },
  {
    "id": "ARC-389",
    "name": "Archimedes Y",
    "coordinates": [
      29.97,
      -9.5
    ],
    "description": "A Satellite Feature on the Moon with a diameter of 2.2 km.",
    "imageUrl": ""
  },
  {
    "id": "ARC-390",
    "name": "Archimedes Z",
    "coordinates": [
      26.88,
      -1.41
    ],
    "description": "A Satellite Feature on the Moon with a diameter of 2.07 km.",
    "imageUrl": ""
  },
  {
    "id": "ARC-391",
    "name": "Archytas",
    "coordinates": [
      58.87,
      4.99
    ],
    "description": "A Crater, craters on the Moon with a diameter of 31.95 km.",
    "imageUrl": ""
  },
  {
    "id": "ARC-392",
    "name": "Archytas B",
    "coordinates": [
      61.44,
      3.17
    ],
    "description": "A Satellite Feature on the Moon with a diameter of 35.18 km.",
    "imageUrl": ""
  },
  {
    "id": "ARC-393",
    "name": "Archytas D",
    "coordinates": [
      63.71,
      11.9
    ],
    "description": "A Satellite Feature on the Moon with a diameter of 44.75 km.",
    "imageUrl": ""
  },
  {
    "id": "ARC-394",
    "name": "Archytas G",
    "coordinates": [
      55.73,
      0.53
    ],
    "description": "A Satellite Feature on the Moon with a diameter of 7.21 km.",
    "imageUrl": ""
  },
  {
    "id": "ARC-395",
    "name": "Archytas K",
    "coordinates": [
      62.66,
      7.68
    ],
    "description": "A Satellite Feature on the Moon with a diameter of 13.77 km.",
    "imageUrl": ""
  },
  {
    "id": "ARC-396",
    "name": "Archytas L",
    "coordinates": [
      56.19,
      0.9
    ],
    "description": "A Satellite Feature on the Moon with a diameter of 4.38 km.",
    "imageUrl": ""
  },
  {
    "id": "ARC-397",
    "name": "Archytas U",
    "coordinates": [
      62.9,
      9.22
    ],
    "description": "A Satellite Feature on the Moon with a diameter of 7.39 km.",
    "imageUrl": ""
  },
  {
    "id": "ARC-398",
    "name": "Archytas W",
    "coordinates": [
      61.29,
      5.2
    ],
    "description": "A Satellite Feature on the Moon with a diameter of 5.73 km.",
    "imageUrl": ""
  },
  {
    "id": "ARG-399",
    "name": "Argelander",
    "coordinates": [
      -16.55,
      5.8
    ],
    "description": "A Crater, craters on the Moon with a diameter of 33.72 km.",
    "imageUrl": ""
  },
  {
    "id": "ARG-400",
    "name": "Argelander A",
    "coordinates": [
      -16.54,
      6.75
    ],
    "description": "A Satellite Feature on the Moon with a diameter of 8.65 km.",
    "imageUrl": ""
  },
  {
    "id": "ARG-401",
    "name": "Argelander B",
    "coordinates": [
      -15.6,
      5.1
    ],
    "description": "A Satellite Feature on the Moon with a diameter of 5.6 km.",
    "imageUrl": ""
  },
  {
    "id": "ARG-402",
    "name": "Argelander C",
    "coordinates": [
      -16.28,
      5.72
    ],
    "description": "A Satellite Feature on the Moon with a diameter of 3.87 km.",
    "imageUrl": ""
  },
  {
    "id": "ARG-403",
    "name": "Argelander D",
    "coordinates": [
      -17.64,
      4.44
    ],
    "description": "A Satellite Feature on the Moon with a diameter of 10.69 km.",
    "imageUrl": ""
  },
  {
    "id": "ARG-404",
    "name": "Argelander W",
    "coordinates": [
      -16.75,
      4.18
    ],
    "description": "A Satellite Feature on the Moon with a diameter of 18.63 km.",
    "imageUrl": ""
  },
  {
    "id": "ARI-405",
    "name": "Ariadaeus",
    "coordinates": [
      4.55,
      17.28
    ],
    "description": "A Crater, craters on the Moon with a diameter of 10.4 km.",
    "imageUrl": ""
  },
  {
    "id": "ARI-406",
    "name": "Ariadaeus A",
    "coordinates": [
      4.64,
      17.49
    ],
    "description": "A Satellite Feature on the Moon with a diameter of 7.94 km.",
    "imageUrl": ""
  },
  {
    "id": "ARI-407",
    "name": "Ariadaeus B",
    "coordinates": [
      4.9,
      15.06
    ],
    "description": "A Satellite Feature on the Moon with a diameter of 7.8 km.",
    "imageUrl": ""
  },
  {
    "id": "ARI-408",
    "name": "Ariadaeus D",
    "coordinates": [
      4.88,
      17.03
    ],
    "description": "A Satellite Feature on the Moon with a diameter of 3.92 km.",
    "imageUrl": ""
  },
  {
    "id": "ARI-409",
    "name": "Ariadaeus E",
    "coordinates": [
      5.32,
      17.63
    ],
    "description": "A Satellite Feature on the Moon with a diameter of 21.96 km.",
    "imageUrl": ""
  },
  {
    "id": "ARI-410",
    "name": "Ariadaeus F",
    "coordinates": [
      4.32,
      18.01
    ],
    "description": "A Satellite Feature on the Moon with a diameter of 3.16 km.",
    "imageUrl": ""
  },
  {
    "id": "[AR-411",
    "name": "[Ariosto]",
    "coordinates": [
      -3.6,
      95.6
    ],
    "description": "A Crater, craters on the Moon with a diameter of 0 km.",
    "imageUrl": ""
  },
  {
    "id": "ARI-412",
    "name": "Aristarchus",
    "coordinates": [
      23.73,
      -47.49
    ],
    "description": "A Crater, craters on the Moon with a diameter of 39.99 km.",
    "imageUrl": ""
  },
  {
    "id": "ARI-413",
    "name": "Aristarchus B",
    "coordinates": [
      26.28,
      -46.85
    ],
    "description": "A Satellite Feature on the Moon with a diameter of 6.95 km.",
    "imageUrl": ""
  },
  {
    "id": "ARI-414",
    "name": "Aristarchus D",
    "coordinates": [
      23.73,
      -42.88
    ],
    "description": "A Satellite Feature on the Moon with a diameter of 4.65 km.",
    "imageUrl": ""
  },
  {
    "id": "ARI-415",
    "name": "Aristarchus F",
    "coordinates": [
      21.67,
      -46.57
    ],
    "description": "A Satellite Feature on the Moon with a diameter of 17.6 km.",
    "imageUrl": ""
  },
  {
    "id": "ARI-416",
    "name": "Aristarchus H",
    "coordinates": [
      22.61,
      -45.74
    ],
    "description": "A Satellite Feature on the Moon with a diameter of 4.43 km.",
    "imageUrl": ""
  },
  {
    "id": "ARI-417",
    "name": "Aristarchus N",
    "coordinates": [
      22.83,
      -43.03
    ],
    "description": "A Satellite Feature on the Moon with a diameter of 3.14 km.",
    "imageUrl": ""
  },
  {
    "id": "ARI-418",
    "name": "Aristarchus S",
    "coordinates": [
      19.29,
      -46.28
    ],
    "description": "A Satellite Feature on the Moon with a diameter of 3.8 km.",
    "imageUrl": ""
  },
  {
    "id": "ARI-419",
    "name": "Aristarchus T",
    "coordinates": [
      19.67,
      -46.5
    ],
    "description": "A Satellite Feature on the Moon with a diameter of 3.33 km.",
    "imageUrl": ""
  },
  {
    "id": "ARI-420",
    "name": "Aristarchus U",
    "coordinates": [
      19.73,
      -48.64
    ],
    "description": "A Satellite Feature on the Moon with a diameter of 3.45 km.",
    "imageUrl": ""
  },
  {
    "id": "ARI-421",
    "name": "Aristarchus Z",
    "coordinates": [
      25.49,
      -48.49
    ],
    "description": "A Satellite Feature on the Moon with a diameter of 7.74 km.",
    "imageUrl": ""
  },
  {
    "id": "ARI-422",
    "name": "Aristillus",
    "coordinates": [
      33.88,
      1.21
    ],
    "description": "A Crater, craters on the Moon with a diameter of 54.37 km.",
    "imageUrl": ""
  },
  {
    "id": "ARI-423",
    "name": "Aristillus A",
    "coordinates": [
      33.64,
      4.53
    ],
    "description": "A Satellite Feature on the Moon with a diameter of 4.44 km.",
    "imageUrl": ""
  },
  {
    "id": "ARI-424",
    "name": "Aristillus B",
    "coordinates": [
      34.8,
      -1.93
    ],
    "description": "A Satellite Feature on the Moon with a diameter of 8.02 km.",
    "imageUrl": ""
  },
  {
    "id": "ARI-425",
    "name": "Aristoteles",
    "coordinates": [
      50.24,
      17.32
    ],
    "description": "A Crater, craters on the Moon with a diameter of 87.57 km.",
    "imageUrl": ""
  },
  {
    "id": "ARI-426",
    "name": "Aristoteles D",
    "coordinates": [
      47.48,
      14.71
    ],
    "description": "A Satellite Feature on the Moon with a diameter of 5.61 km.",
    "imageUrl": ""
  },
  {
    "id": "ARI-427",
    "name": "Aristoteles M",
    "coordinates": [
      53.5,
      27.26
    ],
    "description": "A Satellite Feature on the Moon with a diameter of 6.98 km.",
    "imageUrl": ""
  },
  {
    "id": "ARI-428",
    "name": "Aristoteles N",
    "coordinates": [
      52.9,
      26.84
    ],
    "description": "A Satellite Feature on the Moon with a diameter of 5.3 km.",
    "imageUrl": ""
  },
  {
    "id": "ARM-429",
    "name": "Armi\u0144ski",
    "coordinates": [
      -16.36,
      154.22
    ],
    "description": "A Crater, craters on the Moon with a diameter of 26.76 km.",
    "imageUrl": ""
  },
  {
    "id": "ARM-430",
    "name": "Armi\u0144ski D",
    "coordinates": [
      -16.04,
      154.97
    ],
    "description": "A Satellite Feature on the Moon with a diameter of 11.24 km.",
    "imageUrl": ""
  },
  {
    "id": "ARM-431",
    "name": "Armi\u0144ski K",
    "coordinates": [
      -17.09,
      154.64
    ],
    "description": "A Satellite Feature on the Moon with a diameter of 20.05 km.",
    "imageUrl": ""
  },
  {
    "id": "ARM-432",
    "name": "Armstrong",
    "coordinates": [
      1.35,
      24.94
    ],
    "description": "A Crater, craters on the Moon with a diameter of 4.21 km.",
    "imageUrl": ""
  },
  {
    "id": "ARN-433",
    "name": "Arnold",
    "coordinates": [
      66.98,
      35.83
    ],
    "description": "A Crater, craters on the Moon with a diameter of 93.13 km.",
    "imageUrl": ""
  },
  {
    "id": "ARN-434",
    "name": "Arnold A",
    "coordinates": [
      68.77,
      39.6
    ],
    "description": "A Satellite Feature on the Moon with a diameter of 55.13 km.",
    "imageUrl": ""
  },
  {
    "id": "ARN-435",
    "name": "Arnold E",
    "coordinates": [
      71.48,
      38.1
    ],
    "description": "A Satellite Feature on the Moon with a diameter of 31.15 km.",
    "imageUrl": ""
  },
  {
    "id": "ARN-436",
    "name": "Arnold F",
    "coordinates": [
      67.55,
      35.18
    ],
    "description": "A Satellite Feature on the Moon with a diameter of 10.41 km.",
    "imageUrl": ""
  },
  {
    "id": "ARN-437",
    "name": "Arnold G",
    "coordinates": [
      67.39,
      31.45
    ],
    "description": "A Satellite Feature on the Moon with a diameter of 10.64 km.",
    "imageUrl": ""
  },
  {
    "id": "ARN-438",
    "name": "Arnold H",
    "coordinates": [
      72.59,
      44.98
    ],
    "description": "A Satellite Feature on the Moon with a diameter of 12.82 km.",
    "imageUrl": ""
  },
  {
    "id": "ARN-439",
    "name": "Arnold J",
    "coordinates": [
      65.9,
      33.82
    ],
    "description": "A Satellite Feature on the Moon with a diameter of 6.17 km.",
    "imageUrl": ""
  },
  {
    "id": "ARN-440",
    "name": "Arnold K",
    "coordinates": [
      70.71,
      42.38
    ],
    "description": "A Satellite Feature on the Moon with a diameter of 30 km.",
    "imageUrl": ""
  },
  {
    "id": "ARN-441",
    "name": "Arnold L",
    "coordinates": [
      70.0,
      35.77
    ],
    "description": "A Satellite Feature on the Moon with a diameter of 34.89 km.",
    "imageUrl": ""
  },
  {
    "id": "ARN-442",
    "name": "Arnold M",
    "coordinates": [
      68.29,
      43.59
    ],
    "description": "A Satellite Feature on the Moon with a diameter of 6.77 km.",
    "imageUrl": ""
  },
  {
    "id": "ARN-443",
    "name": "Arnold N",
    "coordinates": [
      70.15,
      41.6
    ],
    "description": "A Satellite Feature on the Moon with a diameter of 18.81 km.",
    "imageUrl": ""
  },
  {
    "id": "ARR-444",
    "name": "Arrhenius",
    "coordinates": [
      -55.58,
      -91.45
    ],
    "description": "A Crater, craters on the Moon with a diameter of 40.93 km.",
    "imageUrl": ""
  },
  {
    "id": "ARR-445",
    "name": "Arrhenius J",
    "coordinates": [
      -57.52,
      -88.45
    ],
    "description": "A Satellite Feature on the Moon with a diameter of 16.98 km.",
    "imageUrl": ""
  },
  {
    "id": "[AR-446",
    "name": "[Arrhenius P]",
    "coordinates": [
      -58.3,
      -93.5
    ],
    "description": "A Satellite Feature on the Moon with a diameter of 0 km.",
    "imageUrl": ""
  },
  {
    "id": "ART-447",
    "name": "Artamonov",
    "coordinates": [
      25.44,
      103.79
    ],
    "description": "A Crater, craters on the Moon with a diameter of 62.45 km.",
    "imageUrl": ""
  },
  {
    "id": "ART-448",
    "name": "Artem'ev",
    "coordinates": [
      10.4,
      -145.22
    ],
    "description": "A Crater, craters on the Moon with a diameter of 66.39 km.",
    "imageUrl": ""
  },
  {
    "id": "ART-449",
    "name": "Artem'ev G",
    "coordinates": [
      10.01,
      -143.69
    ],
    "description": "A Satellite Feature on the Moon with a diameter of 60.94 km.",
    "imageUrl": ""
  },
  {
    "id": "ART-450",
    "name": "Artem'ev L",
    "coordinates": [
      7.96,
      -144.2
    ],
    "description": "A Satellite Feature on the Moon with a diameter of 27.97 km.",
    "imageUrl": ""
  },
  {
    "id": "ART-451",
    "name": "Artemis",
    "coordinates": [
      25.03,
      -25.36
    ],
    "description": "A Crater, craters on the Moon with a diameter of 2.28 km.",
    "imageUrl": ""
  },
  {
    "id": "ART-452",
    "name": "Artsimovich",
    "coordinates": [
      27.61,
      -36.63
    ],
    "description": "A Crater, craters on the Moon with a diameter of 7.96 km.",
    "imageUrl": ""
  },
  {
    "id": "ARY-453",
    "name": "Aryabhata",
    "coordinates": [
      6.2,
      35.17
    ],
    "description": "A Crater, craters on the Moon with a diameter of 21.89 km.",
    "imageUrl": ""
  },
  {
    "id": "ARZ-454",
    "name": "Arzachel",
    "coordinates": [
      -18.26,
      -1.93
    ],
    "description": "A Crater, craters on the Moon with a diameter of 96.99 km.",
    "imageUrl": ""
  },
  {
    "id": "ARZ-455",
    "name": "Arzachel A",
    "coordinates": [
      -18.06,
      -1.51
    ],
    "description": "A Satellite Feature on the Moon with a diameter of 8.69 km.",
    "imageUrl": ""
  },
  {
    "id": "ARZ-456",
    "name": "Arzachel B",
    "coordinates": [
      -17.06,
      -2.98
    ],
    "description": "A Satellite Feature on the Moon with a diameter of 7.71 km.",
    "imageUrl": ""
  },
  {
    "id": "ARZ-457",
    "name": "Arzachel C",
    "coordinates": [
      -17.49,
      -3.71
    ],
    "description": "A Satellite Feature on the Moon with a diameter of 5.66 km.",
    "imageUrl": ""
  },
  {
    "id": "ARZ-458",
    "name": "Arzachel D",
    "coordinates": [
      -20.19,
      -2.14
    ],
    "description": "A Satellite Feature on the Moon with a diameter of 7.46 km.",
    "imageUrl": ""
  },
  {
    "id": "ARZ-459",
    "name": "Arzachel H",
    "coordinates": [
      -18.69,
      -2.05
    ],
    "description": "A Satellite Feature on the Moon with a diameter of 4.08 km.",
    "imageUrl": ""
  },
  {
    "id": "ARZ-460",
    "name": "Arzachel K",
    "coordinates": [
      -18.38,
      -1.62
    ],
    "description": "A Satellite Feature on the Moon with a diameter of 3.5 km.",
    "imageUrl": ""
  },
  {
    "id": "ARZ-461",
    "name": "Arzachel L",
    "coordinates": [
      -19.96,
      0.13
    ],
    "description": "A Satellite Feature on the Moon with a diameter of 4.41 km.",
    "imageUrl": ""
  },
  {
    "id": "ARZ-462",
    "name": "Arzachel M",
    "coordinates": [
      -20.65,
      -0.87
    ],
    "description": "A Satellite Feature on the Moon with a diameter of 3.02 km.",
    "imageUrl": ""
  },
  {
    "id": "ARZ-463",
    "name": "Arzachel N",
    "coordinates": [
      -20.42,
      -2.27
    ],
    "description": "A Satellite Feature on the Moon with a diameter of 2.76 km.",
    "imageUrl": ""
  },
  {
    "id": "ARZ-464",
    "name": "Arzachel T",
    "coordinates": [
      -17.68,
      -1.3
    ],
    "description": "A Satellite Feature on the Moon with a diameter of 2.96 km.",
    "imageUrl": ""
  },
  {
    "id": "ARZ-465",
    "name": "Arzachel Y",
    "coordinates": [
      -18.27,
      -4.26
    ],
    "description": "A Satellite Feature on the Moon with a diameter of 3.92 km.",
    "imageUrl": ""
  },
  {
    "id": "ASA-466",
    "name": "Asada",
    "coordinates": [
      7.25,
      49.9
    ],
    "description": "A Crater, craters on the Moon with a diameter of 12.37 km.",
    "imageUrl": ""
  },
  {
    "id": "ASC-467",
    "name": "Asclepi",
    "coordinates": [
      -55.19,
      25.52
    ],
    "description": "A Crater, craters on the Moon with a diameter of 40.56 km.",
    "imageUrl": ""
  },
  {
    "id": "ASC-468",
    "name": "Asclepi A",
    "coordinates": [
      -53.1,
      23.01
    ],
    "description": "A Satellite Feature on the Moon with a diameter of 13.43 km.",
    "imageUrl": ""
  },
  {
    "id": "ASC-469",
    "name": "Asclepi B",
    "coordinates": [
      -54.24,
      23.83
    ],
    "description": "A Satellite Feature on the Moon with a diameter of 17.26 km.",
    "imageUrl": ""
  },
  {
    "id": "ASC-470",
    "name": "Asclepi C",
    "coordinates": [
      -53.58,
      23.55
    ],
    "description": "A Satellite Feature on the Moon with a diameter of 9.57 km.",
    "imageUrl": ""
  },
  {
    "id": "ASC-471",
    "name": "Asclepi D",
    "coordinates": [
      -53.66,
      24.09
    ],
    "description": "A Satellite Feature on the Moon with a diameter of 17.86 km.",
    "imageUrl": ""
  },
  {
    "id": "ASC-472",
    "name": "Asclepi E",
    "coordinates": [
      -52.26,
      24.15
    ],
    "description": "A Satellite Feature on the Moon with a diameter of 6.39 km.",
    "imageUrl": ""
  },
  {
    "id": "ASC-473",
    "name": "Asclepi G",
    "coordinates": [
      -53.5,
      24.8
    ],
    "description": "A Satellite Feature on the Moon with a diameter of 4.93 km.",
    "imageUrl": ""
  },
  {
    "id": "ASC-474",
    "name": "Asclepi H",
    "coordinates": [
      -52.8,
      25.2
    ],
    "description": "A Satellite Feature on the Moon with a diameter of 18.22 km.",
    "imageUrl": ""
  },
  {
    "id": "ASH-475",
    "name": "Ashbrook",
    "coordinates": [
      -81.1,
      -110.58
    ],
    "description": "A Crater, craters on the Moon with a diameter of 157.68 km.",
    "imageUrl": ""
  },
  {
    "id": "AST-476",
    "name": "Aston",
    "coordinates": [
      32.77,
      -87.68
    ],
    "description": "A Crater, craters on the Moon with a diameter of 44.48 km.",
    "imageUrl": ""
  },
  {
    "id": "AST-477",
    "name": "Aston K",
    "coordinates": [
      35.04,
      -87.89
    ],
    "description": "A Satellite Feature on the Moon with a diameter of 14.46 km.",
    "imageUrl": ""
  },
  {
    "id": "AST-478",
    "name": "Aston L",
    "coordinates": [
      35.47,
      -86.51
    ],
    "description": "A Satellite Feature on the Moon with a diameter of 10.08 km.",
    "imageUrl": ""
  },
  {
    "id": "ATL-479",
    "name": "Atlas",
    "coordinates": [
      46.74,
      44.38
    ],
    "description": "A Crater, craters on the Moon with a diameter of 88.12 km.",
    "imageUrl": ""
  },